poiId,name,avgScore,address,phone,openTime,extraInfos,hasFoodSafeInfo,longitude,latitude,avgPrice,brandId,brandName,showStatus
4615402,爱达乐（绵阳六里村店）,4.8,游仙区六里村华兴南街8号,0816-2297677,周一至周日 07:30-21:30,[],True,104.77077,31.484039,20,786124,爱达乐,1
41955549,大味美蛙鱼头火锅（高水店）,5,涪城区跃进路北段83号（长虹世纪城西二期31幢2-2号）,0816-2287979/13060173677,周一至周日 10:00-22:00,"[{'iconUrl': 'http://p0.meituan.net/codeman/551290739062eda37e52999e2315f50c1887.png', 'text': '提供wifi'}]",True,104.741776,31.492213,41,0,,1
2849942,顶呱呱水煮牛蛙,5,江油市花园路中段涪江丽苑1期33号,0816-3222678/13990110351,周一至周日 10:00-13:00 16:00-21:30,"[{'iconUrl': 'http://p1.meituan.net/codeman/4b1c5696fe5bf2c4d23fb01659b3e68b1960.png', 'text': '停车位'}]",True,104.750316,31.782206,47,0,,1
66225165,好滋味糕点房,5,涪城区跃进路北段高水虹高市场3幢77号（长虹第五生活区西门对面）,18683675026/13890104154,周一至周日 06:30-24:00  2020-01-22至2020-01-27 休息,[],True,104.740738,31.493208,50,0,,1
40689052,原饼道,5,涪城区跃进路长虹国际城1期底商,18683672770,周一至周日 11:30-20:30  2020-01-23至2020-01-29 休息,"[{'iconUrl': 'http://p0.meituan.net/codeman/551290739062eda37e52999e2315f50c1887.png', 'text': '提供wifi'}]",True,104.74173,31.468928,12,0,,1
5432854,三碗不过岗（芙蓉金城店）,5,游仙区仙童街与游仙东路交口东南（乐府娱乐会所正对面）,0816-2380999,周一至周日 09:00-14:00 17:00-21:00  2020-01-26至2020-02-08 休息,"[{'iconUrl': 'http://p0.meituan.net/codeman/551290739062eda37e52999e2315f50c1887.png', 'text': '提供wifi'}]",True,104.776005,31.495797,48,1804494,三碗不过岗,1
66900936,周小弟冒菜馆,5,涪城区中元广场后面双碑南路6号,15983608672,周一至周日 10:00-22:00  2020-01-24至2020-01-30 休息,"[{'iconUrl': 'http://p0.meituan.net/codeman/551290739062eda37e52999e2315f50c1887.png', 'text': '提供wifi'}]",True,104.693235,31.461844,15,0,,1
50295171,卡蜜儿蛋糕,5,三台县北泉路勇华丽景家家福超市旁,13890151752,周一至周日 08:00-21:30,[],True,105.08875,31.098839,15,0,,1
50602881,金莎利,5,游仙区一环路东段183号,13990185331/18780307175,周一至周日 06:00-22:00,"[{'iconUrl': 'http://p0.meituan.net/codeman/551290739062eda37e52999e2315f50c1887.png', 'text': '提供wifi'}]",True,104.770248,31.476403,10,0,,1
51135547,味之绝美蛙鱼头（花园店）,4.5,涪城区金菊街32号,0816-2969686,周一至周日 10:00-22:00  2020-01-24 10:00-14:00 2020-01-25 休息,[],True,104.721678,31.455876,53,2499558,味之绝热血美蛙鱼,1
75934346,小小木屋休闲小吃,4.4,江油市中坝镇火炮街81号,13402385556,周一至周日 08:30-21:30,"[{'iconUrl': 'http://p1.meituan.net/codeman/4b1c5696fe5bf2c4d23fb01659b3e68b1960.png', 'text': '停车位'}]",True,104.743917,31.776154,10,0,,1
40806201,紫香湾（一店）,4.6,江油市中坝镇平等街77号（汇星超市旁）,18281910800,周一至周日 09:30-20:30,[],True,104.745298,31.773503,7,0,,1
5895718,鲜芋仙（凯德广场二期店）,4.6,涪城区临园路东段74号凯德广场二期负一楼（富乐路 科委立交桥）,0816-2966196,周一至周日 10:00-22:00,"[{'iconUrl': 'http://p0.meituan.net/codeman/551290739062eda37e52999e2315f50c1887.png', 'text': '提供wifi'}]",True,104.74159,31.464431,21,0,,1
4870749,依利来,4.8,涪城区长虹大道红星小区17-4号,15008198098,周一至周日 10:00-22:00,[],True,104.770914,31.431722,10,0,,1
42932765,喜利来糕点屋,5,涪城区南山路43号,15351259886,周一至周日 06:00-23:30,"[{'iconUrl': 'http://p0.meituan.net/codeman/551290739062eda37e52999e2315f50c1887.png', 'text': '提供wifi'}, {'iconUrl': 'http://p1.meituan.net/codeman/4b1c5696fe5bf2c4d23fb01659b3e68b1960.png', 'text': '停车位'}]",True,104.773394,31.444433,10,346808,喜利来,1
2501499,德香苑北京烤鸭（绵阳万达店）,4.1,涪城区花园路9号万达广场3楼,0816-2370983/18608098393,周一至周日 10:00-22:00  2020-02-09至2020-02-20 休息,"[{'iconUrl': 'http://p0.meituan.net/codeman/551290739062eda37e52999e2315f50c1887.png', 'text': '提供wifi'}]",True,104.720486,31.453618,59,537432,德香苑北京烤鸭,1
6925724,东方红火锅,4.3,涪城区剑南路西段5-3号（富临东方广场商铺）,0816-2857888,周一至周日 全天,[],False,104.74953,31.467721,50,0,,1
4165655,金诺瑞（大西门店）,4.1,涪城区涪涪城路193号大西门,0816-2245171,周一至周日 07:00-21:30,[],True,104.750969,31.453901,20,1078394,金诺瑞,1
3311047,哈根达斯（绵阳涪城万达店）,4,涪城区花园路9号万达广场1楼1056号,0816-2358906,周一至周日 10:00-22:00,[],True,104.71928,31.45441,70,340319,哈根达斯,1
2255630,东颖龙肥牛王,4.3,涪城区滨河北路东段南河体育中心北门安江名园2栋1楼2号,0816-2217766,周一至周日 10:00-22:00  2020-01-24至2020-01-30 休息,"[{'iconUrl': 'http://p0.meituan.net/codeman/551290739062eda37e52999e2315f50c1887.png', 'text': '提供wifi'}]",True,104.75063,31.4493,93,133661,东颖龙肥牛王,1
52020131,答啤仰阿莎苗家大骨米线,3.9,涪城区凯德广场一期5层,13882087835,周一至周日 10:00-21:00  2020-01-24至2020-01-25 休息,[],True,104.741286,31.464371,26,0,,1
42171683,阿香米线（绵阳凯德店）,3.4,涪城区临园路东段74号凯德广场5楼,17721115234,周一至周日 10:00-21:30  2020-01-24 10:00-17:00,[],True,104.741664,31.46389,30,1118210,阿香米线,1
2423226,韩悦烤肉（涪城万达店）,3.6,涪城区花园路万达3F,0816-2355599,周一至周日 10:00-22:00,"[{'iconUrl': 'http://p0.meituan.net/codeman/551290739062eda37e52999e2315f50c1887.png', 'text': '提供wifi'}]",True,104.719873,31.453045,73,1145591,韩悦烤肉,1
2255378,满江红火锅（花园店）,4.3,涪城区临园路西段14号（花园小区对面商业银行旁）,0816-2377288,周一至周日 10:30-22:00  2020-01-23至2020-01-25 休息,"[{'iconUrl': 'http://p0.meituan.net/codeman/551290739062eda37e52999e2315f50c1887.png', 'text': '提供wifi'}]",True,104.725555,31.460048,64,761541,满江红火锅,1
52534431,美味鲜蛋糕,5,游仙区民安路128号欧家坝小区1区22栋11号,13628085855,周一至周日 05:00-23:30,"[{'iconUrl': 'http://p1.meituan.net/codeman/4b1c5696fe5bf2c4d23fb01659b3e68b1960.png', 'text': '停车位'}]",True,104.784832,31.504214,70,0,,1
2255988,巴将军火锅,4.2,江油市渝州路151-177号（近恒丰园小区）,0816-3366888,周一至周日 09:00-23:00  2020-01-24至2020-01-25 休息,"[{'iconUrl': 'http://p0.meituan.net/codeman/551290739062eda37e52999e2315f50c1887.png', 'text': '提供wifi'}, {'iconUrl': 'http://p1.meituan.net/codeman/4b1c5696fe5bf2c4d23fb01659b3e68b1960.png', 'text': '停车位'}]",True,104.739099,31.76916,40,24293,巴将军火锅,1
41262432,元祖食品(绵阳万达店),4,涪城区花园南街56号1层26号,0816-2758790/18084886025,周一至周日 08:00-21:00,[],True,104.721485,31.45505,104,23840,元祖,1
40010919,芭夯兔（高水店）,4.3,涪城区长虹大道北段67号，瑞仕名都二楼,0816-2269767,周一至周日 09:00-22:00  2020-01-24至2020-01-26 休息,[],True,104.738398,31.489593,50,0,,1
6031919,芭夯兔汤锅（御营店）,4.5,涪城区长虹大道南段70号（御营坝血站门口）,0816-2170277,周一至周日 09:00-22:00  2020-01-24至2020-01-26 休息,"[{'iconUrl': 'http://p0.meituan.net/codeman/551290739062eda37e52999e2315f50c1887.png', 'text': '提供wifi'}, {'iconUrl': 'http://p1.meituan.net/codeman/4b1c5696fe5bf2c4d23fb01659b3e68b1960.png', 'text': '停车位'}]",True,104.74475,31.45012,48,24339,芭夯兔,1
6392856,三颗米烧烤冒菜,4.4,江油市三合镇迎宾路三合一中教师楼1幢1楼25号,13118189003,周一至周日 17:00-02:00,[],True,104.767712,31.782424,33,0,,1
6738176,让鸭脑壳飞（高水店）,5,涪城区长虹大道北段58号,0816-2736822/15984652979,周一至周日 10:00-23:00,"[{'iconUrl': 'http://p0.meituan.net/codeman/551290739062eda37e52999e2315f50c1887.png', 'text': '提供wifi'}]",True,104.739955,31.489219,50,1296819,让鸭脑壳飞,1
6838764,圣多美汉堡炸鸡（新西街店）,4.2,三台县新西街仟百度烤肉楼下,0816-5331066/5223365/18081257277,周一至周日 09:00-23:00,"[{'iconUrl': 'http://p0.meituan.net/codeman/551290739062eda37e52999e2315f50c1887.png', 'text': '提供wifi'}, {'iconUrl': 'http://p1.meituan.net/codeman/4b1c5696fe5bf2c4d23fb01659b3e68b1960.png', 'text': '停车位'}]",True,105.089502,31.088008,16,1407964,圣多美汉堡炸鸡,1
42899673,布拉诺意大利餐厅（凯德店）,4,涪城区临园路东段74号凯德广场二期5楼（会仙路富乐路科委立交）,0816-2751199,周一至周日 11:00-21:00  2020-02-16至2020-02-25 休息,"[{'iconUrl': 'http://p0.meituan.net/codeman/551290739062eda37e52999e2315f50c1887.png', 'text': '提供wifi'}]",True,104.741689,31.464267,77,1340431,布拉诺意大利餐厅,1
40715053,兰兰糕点城（金轮干道总店）,3.8,江油市中坝镇金轮中路238号,0816-3263744/13981146653,周一至周日 09:00-21:00,[],True,104.745755,31.774918,20,0,,1
5090236,龙缘酸汤乌鱼府,4.5,涪城区红桥路嘉来板桥7栋1-3号,0816-6395328,周一至周日 09:30-21:00,"[{'iconUrl': 'http://p0.meituan.net/codeman/551290739062eda37e52999e2315f50c1887.png', 'text': '提供wifi'}, {'iconUrl': 'http://p1.meituan.net/codeman/4b1c5696fe5bf2c4d23fb01659b3e68b1960.png', 'text': '停车位'}]",False,104.777,31.432007,36,0,,1
42452122,华香园蛋糕,4.3,涪城区新华西街55号,18681675724/13219980750,周一至周日 07:00-22:00,"[{'iconUrl': 'http://p0.meituan.net/codeman/551290739062eda37e52999e2315f50c1887.png', 'text': '提供wifi'}]",True,104.72374,31.456925,13,0,,1
42722716,玉江清汤黄牛肉合恩餐饮,4.5,游仙区芙蓉汉城38-9号,0816-5028808,周一至周日 09:00-21:30  2020-01-24至2020-01-26 休息,"[{'iconUrl': 'http://p1.meituan.net/codeman/4b1c5696fe5bf2c4d23fb01659b3e68b1960.png', 'text': '停车位'}]",True,104.77075,31.47468,51,0,,1
52211032,重庆土灶老火锅,4.6,涪城区西科大新区烧烤广场内（蒋记干锅）,18608080205,周一至周日 09:30-23:00,"[{'iconUrl': 'http://p0.meituan.net/codeman/551290739062eda37e52999e2315f50c1887.png', 'text': '提供wifi'}, {'iconUrl': 'http://p1.meituan.net/codeman/4b1c5696fe5bf2c4d23fb01659b3e68b1960.png', 'text': '停车位'}]",False,104.701112,31.540702,38,0,,1
6362780,刘一手火锅（恒丰店）,4.2,江油市渝州路137号恒丰园,0816-3369998/15351232258,周一至周日 09:00-24:00  2020-01-24至2020-01-26 休息,"[{'iconUrl': 'http://p1.meituan.net/codeman/4b1c5696fe5bf2c4d23fb01659b3e68b1960.png', 'text': '停车位'}]",True,104.7396,31.769341,41,0,,1
2255670,干锅先生（高新店）,4.2,涪城区双碑中街57号（粥天下旁）,0816-2538946,周一至周日 10:00-22:00,[],True,104.688219,31.468187,46,0,,1
2852346,杨肥肠小火锅（花园店）,3.6,涪城区花园北街7号,0816-2373511,周一至周日 10:00-04:00,[],True,104.720956,31.456957,46,644422,杨肥肠小火锅,1
2255563,老俵肥肠鸡（花园总店）,4.1,涪城区荷花东街39号（桂园雅居河堤边）,0816-2397899,周一至周日 10:00-21:30,"[{'iconUrl': 'http://p1.meituan.net/codeman/4b1c5696fe5bf2c4d23fb01659b3e68b1960.png', 'text': '停车位'}]",True,104.716133,31.450151,47,922694,老俵肥肠鸡,1
4610483,鲜芋仙（茂业店）,3.7,涪城区公园路1号茂业百货二楼中庭,0816-2557660,周一至周日 10:00-22:00,"[{'iconUrl': 'http://p0.meituan.net/codeman/551290739062eda37e52999e2315f50c1887.png', 'text': '提供wifi'}]",True,104.751358,31.460882,21,0,,1
6668642,柒味餐饮（高新店）,4.1,涪城区绵兴东路86号,0816-2589188,周一至周日 09:00-14:30 17:00-22:00  2020-01-24至2020-01-25 休息,[],True,104.68457,31.46581,48,0,,1
41969144,周扒皮柴火鸡,3.8,涪城区一环路北段37号,0816-3334618,周一至周日 10:00-22:00  2020-01-24至2020-01-26 休息,"[{'iconUrl': 'http://p0.meituan.net/codeman/551290739062eda37e52999e2315f50c1887.png', 'text': '提供wifi'}, {'iconUrl': 'http://p1.meituan.net/codeman/4b1c5696fe5bf2c4d23fb01659b3e68b1960.png', 'text': '停车位'}]",True,104.738053,31.484349,41,0,,1
4063178,乐山胖孃串串香,4,涪城区涪御旗路21-7号,15984656200,周一至周日 10:00-02:00,"[{'iconUrl': 'http://p0.meituan.net/codeman/551290739062eda37e52999e2315f50c1887.png', 'text': '提供wifi'}, {'iconUrl': 'http://p1.meituan.net/codeman/4b1c5696fe5bf2c4d23fb01659b3e68b1960.png', 'text': '停车位'}]",True,104.735699,31.456292,45,0,,1
4704435,天英莊火锅王（东津路店）,3.8,游仙区东津路26号（富乐中学旁）,0816-2960288,周一至周日 11:00-22:30,[],True,104.773227,31.464091,45,410292,天英莊火锅王,1
51775286,再遇上善本味寿司,4.2,涪城区花园路9号万达广场5幢1楼3号,0816-2213301/18683758525,"周一至周五 11:00-13:30 17:00-21:30  周六,周日 11:00-21:30  2020-01-24至2020-01-28 休息",[],True,104.721224,31.453901,66,2880360,上善本味寿司店,1
68314839,有盐有味羊蝎子,4.2,涪城区八角南路富临山庄后大门柏杨宾馆一楼,18780345898,周一至周日 11:00-22:00  2020-01-24至2020-01-30 休息,[],True,104.683307,31.483035,46,0,,1
4468757,海上海水晶酒店豆捞工坊,4.3,游仙区一环路东段135号海上海水晶酒店1楼,0816-2727666,周一至周日 09:00-14:00 16:00-21:00,"[{'iconUrl': 'http://p1.meituan.net/codeman/4b1c5696fe5bf2c4d23fb01659b3e68b1960.png', 'text': '停车位'}]",True,104.767468,31.472203,111,0,,1
110880412,花半里美食火锅（凯德广场店）,4.2,涪城区临园路东段凯德广场负1楼,15984671363,周一至周日 10:00-22:00  2020-01-24至2020-01-25 休息,[],True,104.74197,31.46417,41,0,,1
2855015,金穗麦佳鸡汁水饺（平政店）,4.1,涪城区跃进路北段21号,0816-2686772,周一至周日 10:00-22:00,[],True,104.74192,31.48061,25,0,,1
962389,老鬼火锅（高新店）,4,涪城区火炬西街丽府e家酒店隔壁1楼,0816-2537977,周一至周日 10:00-22:00  2020-01-24至2020-01-26 休息,"[{'iconUrl': 'http://p1.meituan.net/codeman/4b1c5696fe5bf2c4d23fb01659b3e68b1960.png', 'text': '停车位'}]",True,104.676107,31.469483,47,27160,老鬼火锅,1
51900868,茉茜娅（绵阳店）,4,涪城区火炬南街48号金域丽江11幢1栋9号（塞纳阳光海天师雨幼儿园对面）,18781126713/13778073138,周一至周日 07:00-22:00,[],True,104.694686,31.457876,15,0,,1
2255159,必胜客（新世界店）,4.5,涪城区临圆路东段72号新益大厦一楼,0816-2341790,周一至周日 07:30-22:00,"[{'iconUrl': 'http://p0.meituan.net/codeman/551290739062eda37e52999e2315f50c1887.png', 'text': '提供wifi'}]",True,104.742966,31.463389,65,539908,必胜客,1
2255574,6秒斑鱼庄（高水店）,4.3,涪城区长虹大道北段58号,0816-6013666/13778157689,周一至周日 10:00-22:00,"[{'iconUrl': 'http://p0.meituan.net/codeman/551290739062eda37e52999e2315f50c1887.png', 'text': '提供wifi'}, {'iconUrl': 'http://p1.meituan.net/codeman/4b1c5696fe5bf2c4d23fb01659b3e68b1960.png', 'text': '停车位'}]",True,104.74035,31.48919,59,776580,熙尔鑫斑渔庄,1
2536642,鲜塘宴（虹桥西路店）,4.3,涪城区南湖街板桥小区虹桥西路公交站,0816-2213556,周一至周日 09:00-21:00,"[{'iconUrl': 'http://p0.meituan.net/codeman/551290739062eda37e52999e2315f50c1887.png', 'text': '提供wifi'}, {'iconUrl': 'http://p1.meituan.net/codeman/4b1c5696fe5bf2c4d23fb01659b3e68b1960.png', 'text': '停车位'}]",True,104.777094,31.431631,59,0,,1
40977582,让猪手飞杨程猪手（高新店）,4.1,涪城区双碑中街58号-2-28（西都生活广场A区）,13981175296,周一至周日 09:00-21:00  2020-01-24至2020-01-30 休息,"[{'iconUrl': 'http://p1.meituan.net/codeman/4b1c5696fe5bf2c4d23fb01659b3e68b1960.png', 'text': '停车位'}]",True,104.69039,31.470201,26,0,,1
5208724,鲜芋仙（涪城万达店）,3.7,涪城区万达广场3楼（绵阳火车站）,0816-2886963,周一至周日 10:00-22:00,"[{'iconUrl': 'http://p0.meituan.net/codeman/551290739062eda37e52999e2315f50c1887.png', 'text': '提供wifi'}]",True,104.720565,31.45354,23,0,,1
4964806,蜀江烤鱼（涪城万达店）,3.6,涪城区花园路9号万达广场室内步行街三层,0816-2377718,周一至周日 10:30-22:00,"[{'iconUrl': 'http://p0.meituan.net/codeman/551290739062eda37e52999e2315f50c1887.png', 'text': '提供wifi'}]",True,104.72054,31.453474,68,28777,蜀江烤鱼,1
6078153,三香悦精品川菜馆,3.6,涪城区跃进路时代天骄广场三号楼三楼二号（404医院对面时代天骄商业广场盘子女人旁）,0816-6224592/18981182739,周一至周日 09:00-21:00,"[{'iconUrl': 'http://p0.meituan.net/codeman/551290739062eda37e52999e2315f50c1887.png', 'text': '提供wifi'}]",True,104.740917,31.47647,58,0,,1
52724646,幺妹肥肠,4.4,江油市中雁路三合镇庄稼医院斜对面,15328201966,周一至周日 07:00-21:00,"[{'iconUrl': 'http://p0.meituan.net/codeman/551290739062eda37e52999e2315f50c1887.png', 'text': '提供wifi'}]",True,104.777044,31.79643,28,0,,1
2255628,鲜尚轩斑鱼庄（荷花东街店）,4.3,涪城区荷花东街39号（桂园雅居8幢1楼）,0816-2367836,周一至周日 09:30-22:00  2020-01-25至2020-01-27 休息,[],True,104.715861,31.450065,63,1181430,鲜尚轩斑鱼庄,1
41948593,羊加酱烤羊腿（芙蓉汉城总店）,4.5,游仙区一环路东段208号芙蓉汉城二期广场旁29-8号（近芙蓉汉城广场）,18881604123,周一至周日 10:00-22:00  2020-01-24 休息,"[{'iconUrl': 'http://p0.meituan.net/codeman/551290739062eda37e52999e2315f50c1887.png', 'text': '提供wifi'}, {'iconUrl': 'http://p1.meituan.net/codeman/4b1c5696fe5bf2c4d23fb01659b3e68b1960.png', 'text': '停车位'}]",True,104.772256,31.476562,54,0,,1
41430576,何妈冒菜（通安巷店）,3.7,涪城区沿江东路6号负1号商铺,0816-2629220/18281917288,周一至周日 09:00-24:00,"[{'iconUrl': 'http://p0.meituan.net/codeman/551290739062eda37e52999e2315f50c1887.png', 'text': '提供wifi'}]",True,104.739851,31.461378,15,0,,1
4822866,凯宴庄园,3.9,江油市会昌路博文小区旁凯宴庄园（江油市会昌路博文小区旁凯宴庄园）,0816-3360788,周一至周日 09:00-13:30 16:30-19:30,"[{'iconUrl': 'http://p1.meituan.net/codeman/4b1c5696fe5bf2c4d23fb01659b3e68b1960.png', 'text': '停车位'}]",True,104.729614,31.759111,55,0,,1
40245217,南山锅锅肴土灶鸡,3.4,涪城区长虹大道南段南山中学斜对面,0816-2336655,周一至周日 09:30-14:30 17:00-22:00,"[{'iconUrl': 'http://p1.meituan.net/codeman/4b1c5696fe5bf2c4d23fb01659b3e68b1960.png', 'text': '停车位'}]",True,104.763536,31.443144,44,0,,1
51864844,鸭天下（高新店）,4,涪城区火炬西街北段126号（铂金时代）,0816-2686333,周一至周日 09:00-14:00 17:00-21:00,"[{'iconUrl': 'http://p1.meituan.net/codeman/4b1c5696fe5bf2c4d23fb01659b3e68b1960.png', 'text': '停车位'}]",True,104.677252,31.470744,40,0,,1
3276795,盛宴大酒楼,4.3,涪城区长虹大道中段45号4楼（近长虹大道）,0816-2323966,周一至周日 11:00-21:00  2020-01-17至2020-02-29 休息,"[{'iconUrl': 'http://p0.meituan.net/codeman/551290739062eda37e52999e2315f50c1887.png', 'text': '提供wifi'}, {'iconUrl': 'http://p1.meituan.net/codeman/4b1c5696fe5bf2c4d23fb01659b3e68b1960.png', 'text': '停车位'}]",True,104.737839,31.475679,59,0,,1
52698182,麦之都diy蛋糕房,4.4,安州区花荄镇文苑路东段52号,15281100865,周一至周日 08:00-22:00,[],True,104.560509,31.539191,20,0,,1
2722841,豪吧特时尚餐厅（御营坝店）,4.3,涪城区长虹大道南段56-5号（近协和医院饮马大厦流星花园）,0816-2396288,周一至周日 09:00-14:00 17:00-21:00,"[{'iconUrl': 'http://p1.meituan.net/codeman/4b1c5696fe5bf2c4d23fb01659b3e68b1960.png', 'text': '停车位'}]",True,104.74313,31.45158,43,0,,1
2255644,重庆红蜻蜓美蛙鱼头火锅（绵阳店）,4,涪城区涪经开区南湖街133号,0816-6395866,周一至周日 09:30-13:30 16:30-22:00  2020-01-24至2020-01-28 休息,"[{'iconUrl': 'http://p0.meituan.net/codeman/551290739062eda37e52999e2315f50c1887.png', 'text': '提供wifi'}]",True,104.777287,31.43008,54,890556,红蜻蜓美蛙鱼头,1
65831844,阿芒迪娜（万达店）,3.8,涪城区花园路9号万达广场1楼,0816-6333329,周一至周日 07:30-22:00,[],True,104.71944,31.45367,24,0,,1
42426352,馥园火锅,4.2,江油市双江路江电老大门（14路车终点站）,15908244455,周一至周日 12:00-24:00,"[{'iconUrl': 'http://p1.meituan.net/codeman/4b1c5696fe5bf2c4d23fb01659b3e68b1960.png', 'text': '停车位'}]",True,104.768486,31.795051,31,0,,1
5299194,芭夯兔（江油店）,4,江油市诗仙路中段文风街（李白纪念馆前）,0816-3268097,周一至周日 10:00-22:00  2020-01-28至2020-02-01 休息,[],True,104.740497,31.777319,50,0,,1
6731736,良木缘咖啡西餐（凯德店）,3.8,涪城区临园路东段74号凯德广场05层07/08/09B号,0816-2717122,周一至周日 10:00-23:30,"[{'iconUrl': 'http://p0.meituan.net/codeman/551290739062eda37e52999e2315f50c1887.png', 'text': '提供wifi'}]",True,104.741263,31.464064,60,949606,良木缘,1
5233195,鹰贵饼屋（总店）,3.6,平武县飞龙路西段205号,0816-8829386,周一至周日 09:00-17:00,"[{'iconUrl': 'http://p0.meituan.net/codeman/551290739062eda37e52999e2315f50c1887.png', 'text': '提供wifi'}]",True,104.530136,32.406818,10,0,,1
4818291,光头鸭脖（新区店）,3.9,涪城区科大路150号（西科大新区小铁门外）,15008180828,周一至周日 09:00-23:00  2020-01-24至2020-01-30 休息,[],True,104.69878,31.54009,9,0,,1
40412556,园中缘园林火锅,3.8,涪城区元通路科创园区元通文化广场（温莎国际旁）,0816-6202823,周一至周日 09:30-12:30 16:30-21:30,"[{'iconUrl': 'http://p1.meituan.net/codeman/4b1c5696fe5bf2c4d23fb01659b3e68b1960.png', 'text': '停车位'}]",False,104.705626,31.473133,50,0,,1
51983590,金色麦浪烘焙,4.1,安州区文胜路西段67号（银都宝座一期对面）,0816-4662126/15882860080,周一至周日 07:00-22:00,"[{'iconUrl': 'http://p0.meituan.net/codeman/551290739062eda37e52999e2315f50c1887.png', 'text': '提供wifi'}]",True,104.561007,31.534166,12,0,,1
195292616,爱尚LaKaoLa烤肉,4.4,涪城区上马西街,13778124873,周一至周日 10:00-23:30  2020-02-16至2020-02-22 休息,[],False,104.700982,31.489649,53,0,,1
185011399,喜来鼎香源火锅,5,涪城区玉泉中路2号（喜来公社1栋7-8号）,0816-6336866,周一至周日 10:00-22:00,"[{'iconUrl': 'http://p0.meituan.net/codeman/551290739062eda37e52999e2315f50c1887.png', 'text': '提供wifi'}, {'iconUrl': 'http://p1.meituan.net/codeman/4b1c5696fe5bf2c4d23fb01659b3e68b1960.png', 'text': '停车位'}]",True,104.707465,31.489768,55,0,,1
718724193,百变疯味烤肉（金楠天街店）,4.8,涪城区塘坊大道,0816-2288765/13398355580,周一至周日 17:00-23:00,"[{'iconUrl': 'http://p0.meituan.net/codeman/551290739062eda37e52999e2315f50c1887.png', 'text': '提供wifi'}]",False,104.794834,31.400319,45,0,,1
158899855,蜀九香火锅（园艺山店）,3.4,涪城区玉泉南路奥林春天三期七幢一楼,0816-6393699,周一至周日 09:30-23:30,"[{'iconUrl': 'http://p0.meituan.net/codeman/551290739062eda37e52999e2315f50c1887.png', 'text': '提供wifi'}, {'iconUrl': 'http://p1.meituan.net/codeman/4b1c5696fe5bf2c4d23fb01659b3e68b1960.png', 'text': '停车位'}]",True,104.70627,31.48608,82,0,,1
157230343,蜀苑呱呱叫烧菜馆（高新店）,5,涪城区火炬西街与普明南路交汇处东方国际,0816-2203477,周一至周日 09:00-21:30,[],True,104.677288,31.470316,43,0,,1
978709703,曼时光烘培（国际城店）,4.5,涪城区剑南路西段跃进路4号,18990194761,周一至周日 10:00-22:00,[],True,104.742233,31.4682,60,0,,1
1645729272,大味美蛙鱼头火锅（园艺山店）,3,涪城区园艺东街北段58号奥林春天二期10棟1层2号,0816-2572762,周一至周日 10:00-22:00  2020-01-23至2020-01-24 休息,[],True,104.714814,31.48611,50,0,,1
177601402,关鱼把把烧（1958店）,4.5,涪城区跃进路50号（仙龙潭养身汤楼下）,0816-2397997/13980145454,周一至周日 17:00-02:00  2020-01-24至2020-01-26 休息,[],True,104.742183,31.476453,55,0,,1
1409876198,鲜火肴瓦罐酱焖小海鲜,3.5,梓潼县紫阳路兴发广场3楼,13778033626,周一至周日 10:00-22:00,[],False,105.16594,31.6303,23,0,,1
182455125,马路边边麻辣烫（园艺山店）,3.4,涪城区园艺街长兴星城5-1-7（春舍宜宾烧烤旁）,0816-2177198/15508065111,周一至周日 11:00-23:00  2020-01-24至2020-01-27 休息,"[{'iconUrl': 'http://p0.meituan.net/codeman/551290739062eda37e52999e2315f50c1887.png', 'text': '提供wifi'}, {'iconUrl': 'http://p1.meituan.net/codeman/4b1c5696fe5bf2c4d23fb01659b3e68b1960.png', 'text': '停车位'}]",False,104.704761,31.488791,57,0,,1
164147461,三国鱼摆摆（1958店）,4.1,涪城区跃进路1958商业街太平洋影城斜对面,13778122208,周一至周日 10:30-14:00 16:30-21:30  2020-01-24至2020-01-26 休息,[],True,104.744846,31.476583,62,0,,1
87635003,地头鲜（园艺山店）,4,涪城区园艺东街园艺山奥林三期,18780369328,周一至周日 09:00-21:00  2020-01-24至2020-01-27 休息,"[{'iconUrl': 'http://p0.meituan.net/codeman/551290739062eda37e52999e2315f50c1887.png', 'text': '提供wifi'}, {'iconUrl': 'http://p1.meituan.net/codeman/4b1c5696fe5bf2c4d23fb01659b3e68b1960.png', 'text': '停车位'}]",False,104.706867,31.486891,36,0,,1
165841362,丽府e家中餐厅,3,涪城区火炬西街北段93号丽府e家商务酒店内,0816-2574403,周一至周日 09:00-20:30,[],False,104.676142,31.469589,42,0,,1
933480632,彝味印象火盆烧烤（沈家坝店）,4.5,游仙区四川省绵阳市游仙区沈家坝北街1号1幢1-1-2-3,15882788654,周一至周日 16:00-24:00,"[{'iconUrl': 'http://p0.meituan.net/codeman/551290739062eda37e52999e2315f50c1887.png', 'text': '提供wifi'}, {'iconUrl': 'http://p1.meituan.net/codeman/4b1c5696fe5bf2c4d23fb01659b3e68b1960.png', 'text': '停车位'}]",True,104.77442,31.466191,30,0,,1
169985357,鲜莽子火锅,5,游仙区小枧沟镇惠民街107号,13980125256,周一至周日 11:30-23:00,[],True,104.815113,31.424923,50,0,,1
193215048,蜀味火焱山火盆烧烤（高新区店）,5,涪城区火炬西街北段58-9号,15801739358,周一至周日 16:00-23:30,[],False,104.67525,31.46388,41,0,,1
597099460,溢品香鱼火锅（五里堆店）,4.4,游仙区五里堆路一环路东段165号,0816-2717998/13408101480,周一至周日 10:00-13:00 16:30-22:00,[],False,104.767215,31.47825,31,0,,1
194413990,隆味客餐饮,5,涪城区高新区绵兴东路96号25-30、107门面,18683664287,周一至周日 10:00-23:00,[],True,104.680483,31.467316,38,0,,1
164744915,余记萝卜干（马家巷店）,5,涪城区孙家巷2号,15881609196/18190660125,周一至周日 11:30-16:00 17:30-21:00,[],True,104.75532,31.45618,10,0,,1
95143439,吉鼓咖啡（会仙店）,3.5,涪城区涪城区会仙路11-6号,15884607595,周一至周日 12:30-22:00,"[{'iconUrl': 'http://p0.meituan.net/codeman/551290739062eda37e52999e2315f50c1887.png', 'text': '提供wifi'}]",True,104.741682,31.464985,20,0,,1
poiId,name,avgScore,address,phone,openTime,extraInfos,hasFoodSafeInfo,longitude,latitude,avgPrice,brandId,brandName,showStatus
187197359,红社老味火锅（万达总店）,4.7,涪城区金菊街31号1栋1-2层3号、4号,0816-2626138,周一至周日 11:00-24:00  2020-03-03至2020-03-31 11:30-22:00,"[{'iconUrl': 'http://p0.meituan.net/codeman/551290739062eda37e52999e2315f50c1887.png', 'text': '提供wifi'}, {'iconUrl': 'http://p1.meituan.net/codeman/4b1c5696fe5bf2c4d23fb01659b3e68b1960.png', 'text': '停车位'}]",True,104.722186,31.455594,58,0,,1
84137925,清娃子火锅,0,北川羌族自治县105省道西50米,15369854236,,[],False,104.587015,31.923067,35,0,,1
179356757,明厨先生中餐厅,4.3,涪城区高新区双碑中街46号C、D幢1、2层商铺,15983687890,周一至周日 11:00-14:00 17:00-20:30,"[{'iconUrl': 'http://p0.meituan.net/codeman/551290739062eda37e52999e2315f50c1887.png', 'text': '提供wifi'}, {'iconUrl': 'http://p1.meituan.net/codeman/4b1c5696fe5bf2c4d23fb01659b3e68b1960.png', 'text': '停车位'}]",True,104.688537,31.466325,66,0,,1
1452505114,小别蜀火锅集市（梅西百货店）,4.3,涪城区兴达街梅西百货,0816-2129666,周一至周日 10:00-23:00  2020-02-18至2020-02-29 休息,"[{'iconUrl': 'http://p0.meituan.net/codeman/551290739062eda37e52999e2315f50c1887.png', 'text': '提供wifi'}]",True,104.753458,31.461083,54,0,,1
165941952,冷沾沾（剧院店）,3.5,涪城区涪红星街绵州大剧院1楼7号（绵州大剧院背后）,13890141414/18181766758,周一至周日 11:00-21:00  2020-01-24至2020-01-30 休息,[],True,104.7547,31.45618,16,0,,1
1614881218,驰走三味·烤肉集合（万达店）,4.1,涪城区涪城金街花园路9号,0816-6916166,周一至周日 10:00-22:00,[],True,104.720192,31.454513,47,0,,1
188063916,妖妖兔,4.9,涪城区石塘路14号流星花园,15882818923,周一至周日 10:00-14:00 17:00-22:00,"[{'iconUrl': 'http://p0.meituan.net/codeman/551290739062eda37e52999e2315f50c1887.png', 'text': '提供wifi'}]",True,104.743364,31.44999,30,0,,1
195907555,川巴龍鲜火锅,3.5,涪城区滨河北路中段丽景花城4号门,15984414237,周一至周日 09:30-22:30,"[{'iconUrl': 'http://p0.meituan.net/codeman/551290739062eda37e52999e2315f50c1887.png', 'text': '提供wifi'}, {'iconUrl': 'http://p1.meituan.net/codeman/4b1c5696fe5bf2c4d23fb01659b3e68b1960.png', 'text': '停车位'}]",True,104.71306,31.45129,50,0,,1
2628724,虾佬圣汤（曼哈顿旗舰店）,5,涪城区御营坝阳光曼哈顿二期（河堤边二楼）,0816-2399122/2397488,周一至周日 10:00-22:00,[],True,104.745969,31.45609,112,29608,虾佬圣汤,1
160166698,地古牛养生汤锅（御营坝店）,3.6,涪城区御旗路24号,0816-2290888,周一至周日 10:00-14:00 16:00-23:00,[],False,104.735947,31.456183,60,0,,1
177947698,美善韩式炭火烤肉烤串（万达店）,4,涪城区涪城区花园南街66号教体局旁,15723043222,周一至周日 11:00-23:30,[],True,104.722961,31.45545,78,0,,1
163339041,红蜻蜓美蛙鱼头（盐亭店）,4.9,盐亭县云溪上街121、123、125号（南井湾）,0816-7686006,周一至周日 09:00-23:00  2020-01-24 休息,[],True,105.389352,31.221784,29,0,,1
1620121633,甜心•闲生手工传统冰粉（凯德直营店）,4.3,涪城区会仙路4-10号,18081840821,春季、夏季 周一至周日 11:30-20:00  秋季、冬季 周一至周日 08:30-20:30,[],True,104.739031,31.464769,16,0,,1
194822767,虾吃虾涮（宝龙广场店）,4.3,江油市大鹏路西段（宝龙广场三楼）,13795952190/0816-3323389,周一至周日 10:00-22:00  2020-01-24 休息,"[{'iconUrl': 'http://p0.meituan.net/codeman/551290739062eda37e52999e2315f50c1887.png', 'text': '提供wifi'}]",True,104.719004,31.749024,46,0,,1
1757438352,幸会山居西餐,3.5,涪城区城郊乡白土村（融创九阙府生活体验馆旁）,15681190900,周一至周日 11:00-21:00,[],False,104.700087,31.504085,82,0,,1
180043885,双鑫酒家,3.5,涪城区丰谷甘露小学经贸街南,15228418151,周一至周日 10:00-22:00,[],True,104.82938,31.349439,50,0,,1
157255135,NaNa·Food娜娜福热狗和咖啡（长虹国际城店）,5,涪城区长虹国际城二期29栋3楼41号（光大证券旁）,13547135220,周一至周日 10:30-21:30,"[{'iconUrl': 'http://p0.meituan.net/codeman/551290739062eda37e52999e2315f50c1887.png', 'text': '提供wifi'}]",True,104.744223,31.468453,38,0,,1
165060386,西蜀大宅门火锅（西科大新区店）,4.2,涪城区青义北街青羊公寓17号楼一楼门面（蜀香园斜对面）,18084889897,周一至周日 10:30-14:00 17:00-23:00,[],False,104.70355,31.542197,38,0,,1
1044131425,SOKESI米亚果子PET猫咖啡馆,4.6,涪城区四川省绵阳市涪城区青年路11号,13158888660,周一至周日 12:00-20:00,"[{'iconUrl': 'http://p0.meituan.net/codeman/551290739062eda37e52999e2315f50c1887.png', 'text': '提供wifi'}, {'iconUrl': 'http://p1.meituan.net/codeman/4b1c5696fe5bf2c4d23fb01659b3e68b1960.png', 'text': '停车位'}]",True,104.765229,31.455339,36,0,,1
186382749,馋火炉鱼（CBD万达店）,3.9,涪城区经开区绵州大道经开万达广场室内三楼3051号,0816-2197099,周一至周日 10:30-21:30,[],True,104.785017,31.411552,46,0,,1
96829677,驰走三味（万达店）,3.7,涪城区花园路9号万达广场6栋1-2层6-1-43号,0816-6336535,周一至周日 11:00-23:00,[],True,104.720778,31.45392,60,0,,1
192516485,胜先生的烘焙店（长虹国际城店）,5,涪城区长虹国际城33栋一层1-8号门店,18781116632/18281599228,周一至周日 全天,"[{'iconUrl': 'http://p0.meituan.net/codeman/551290739062eda37e52999e2315f50c1887.png', 'text': '提供wifi'}, {'iconUrl': 'http://p1.meituan.net/codeman/4b1c5696fe5bf2c4d23fb01659b3e68b1960.png', 'text': '停车位'}]",True,104.745731,31.469105,58,0,,1
888035758,景福宫韩式烤肉,0,涪城区石桌子街,15082152141,周一至周日 10:00-22:00,[],False,104.785231,31.410976,58,0,,1
193699224,森米Club休闲餐吧（上马西街店）,3.5,涪城区科创区上马西街上马望蜀苑7-1号,0816-2320778,周一至周日 10:00-23:30,"[{'iconUrl': 'http://p0.meituan.net/codeman/551290739062eda37e52999e2315f50c1887.png', 'text': '提供wifi'}, {'iconUrl': 'http://p1.meituan.net/codeman/4b1c5696fe5bf2c4d23fb01659b3e68b1960.png', 'text': '停车位'}]",True,104.697926,31.489919,59,0,,1
4581057,品阁山庄,3.8,涪城区莲花寺路与园艺街交叉口,0816-2551999,周一至周日 08:00-22:00  2020-01-24至2020-01-30 休息,[],True,104.690559,31.474331,51,0,,1
188015071,小酌轩烤肉店（海悦银河城店）,5,游仙区东津路海悦银河城 B馆4楼,0816-2218678/15202685105,周一至周日 10:00-14:30 16:30-21:00  2020-01-23至2020-01-29 休息,"[{'iconUrl': 'http://p0.meituan.net/codeman/551290739062eda37e52999e2315f50c1887.png', 'text': '提供wifi'}, {'iconUrl': 'http://p1.meituan.net/codeman/4b1c5696fe5bf2c4d23fb01659b3e68b1960.png', 'text': '停车位'}]",True,104.770723,31.466356,60,0,,1
195247173,锦州特色烧烤（西雅图店）,4.1,涪城区虹苑路D-25号,15351245123,周一至周日 16:30-02:00  2020-01-18至2020-02-01 休息,[],False,104.683616,31.461259,48,0,,1
190650730,正九宫火锅馆,3.9,涪城区板桥街,0816-8733878,周一至周日 12:00-23:00  2020-01-23至2020-01-28 12:00-14:00 16:00-23:00,"[{'iconUrl': 'http://p0.meituan.net/codeman/551290739062eda37e52999e2315f50c1887.png', 'text': '提供wifi'}, {'iconUrl': 'http://p1.meituan.net/codeman/4b1c5696fe5bf2c4d23fb01659b3e68b1960.png', 'text': '停车位'}]",False,104.779549,31.427838,53,0,,1
2255364,邓氏火锅城,4,涪城区南河路163号（南河体育馆后大门）,0816-2210588,周一至周日 11:00-23:30,"[{'iconUrl': 'http://p0.meituan.net/codeman/551290739062eda37e52999e2315f50c1887.png', 'text': '提供wifi'}]",True,104.754975,31.450057,56,0,,1
117575318,仙海麻麻鱼府,3.5,游仙区沉抗镇仙海风景区南沉抗公交站旁,13990190501,周一至周日 08:30-00:00,"[{'iconUrl': 'http://p0.meituan.net/codeman/551290739062eda37e52999e2315f50c1887.png', 'text': '提供wifi'}, {'iconUrl': 'http://p1.meituan.net/codeman/4b1c5696fe5bf2c4d23fb01659b3e68b1960.png', 'text': '停车位'}]",True,104.853661,31.533296,35,0,,1
106105051,三顾冒菜（沈家坝店）,3.8,游仙区东津路69号景福花园10号,18181754171,周一至周日 11:00-23:00,[],True,104.782769,31.459981,35,110795,三顾冒菜,1
169443771,六和源秘制板栗养身鸡hot烤吧,4,涪城区滨河北路中段桂园雅居河堤边（原玺鼎板栗鸡总店）,0816-2367699,周一至周日 10:00-14:00 16:30-21:30  2020-01-26 10:00-11:00,"[{'iconUrl': 'http://p1.meituan.net/codeman/4b1c5696fe5bf2c4d23fb01659b3e68b1960.png', 'text': '停车位'}]",False,104.716394,31.449919,59,0,,1
40657546,巧手厨房,3.8,涪城区园艺街20号,0816-6356688,周一至周日 09:00-21:00  2020-01-23至2020-01-26 休息,[],False,104.69932,31.4827,45,0,,1
62563163,美林餐厅（永兴店）,4.1,涪城区涪绵兴西路52-6号,0816-2765006,周一至周日 09:00-21:00  2020-01-23至2020-01-29 休息,"[{'iconUrl': 'http://p0.meituan.net/codeman/551290739062eda37e52999e2315f50c1887.png', 'text': '提供wifi'}, {'iconUrl': 'http://p1.meituan.net/codeman/4b1c5696fe5bf2c4d23fb01659b3e68b1960.png', 'text': '停车位'}]",True,104.629363,31.458064,30,0,,1
1770741566,麦掌门汉堡（世纪城店）,0,涪城区长虹大道北段50号A栋27号,15309013182,周一至周日 10:00-22:00,[],True,104.740574,31.487236,16,0,,1
163450353,初原炙烧炭火烧肉居酒屋,3.5,涪城区跃进路50号1958商业街12栋3号仙龙潭楼下,0816-2267166,周一至周日 11:00-23:30  2020-01-24 休息,"[{'iconUrl': 'http://p0.meituan.net/codeman/551290739062eda37e52999e2315f50c1887.png', 'text': '提供wifi'}, {'iconUrl': 'http://p1.meituan.net/codeman/4b1c5696fe5bf2c4d23fb01659b3e68b1960.png', 'text': '停车位'}]",True,104.742204,31.476459,86,0,,1
162840549,余肥肠（万达店）,4,涪城区花园路9号6-20号,13558990577,周一至周日 09:00-21:00,[],True,104.72086,31.45365,25,0,,1
159727696,绘话意境甜品（万达店）,4.3,涪城区花园路9号绵阳涪城万达广场5栋1-2层20号（万达广场3号门斜对面）,0816-2812588,春季、冬季 周五至周日 09:00-23:00  周一至周四 09:00-22:30,[],True,104.72137,31.45335,42,0,,1
157175647,上善本味（乐荟城店）,4.9,涪城区绵阳科创区剑南路西段323号乐荟城1-1-115号,0816-2195126,周一至周日 11:00-14:30 16:30-21:00  2020-01-21至2020-02-03 休息,"[{'iconUrl': 'http://p0.meituan.net/codeman/551290739062eda37e52999e2315f50c1887.png', 'text': '提供wifi'}]",True,104.706174,31.484278,63,0,,1
42168890,火塘烤盘菌汤,3,安州区文苑路东段（玖玖烧烤旁）,0816-4335169/13108158655,周一至周日 10:30-22:00,"[{'iconUrl': 'http://p1.meituan.net/codeman/4b1c5696fe5bf2c4d23fb01659b3e68b1960.png', 'text': '停车位'}]",False,104.562959,31.539538,30,0,,1
108676335,杨肥肠YOHOCO小火锅,4,涪城区涪绵州大道中段229号金楠天街2层,0816-6393999,周一至周日 全天,[],True,104.79379,31.40037,56,0,,1
1890432981,那些年老火锅,3,涪城区临园路西段20号,0816-2685321,周一至周日 10:00-22:00,[],False,104.723548,31.459395,60,0,,1
179543696,禧乐厨房主题森林火锅,5,涪城区园兴东街创新中心二期1号楼负1楼,0816-2309333,周一至周日 17:30-21:30,[],False,104.697237,31.492031,60,0,,1
732130347,板眼川A市井火锅,4.3,涪城区玉泉北路,0816-2271355,周一至周日 10:00-22:00,"[{'iconUrl': 'http://p0.meituan.net/codeman/551290739062eda37e52999e2315f50c1887.png', 'text': '提供wifi'}, {'iconUrl': 'http://p1.meituan.net/codeman/4b1c5696fe5bf2c4d23fb01659b3e68b1960.png', 'text': '停车位'}]",False,104.715783,31.484485,50,0,,1
188590036,犟牛遇匠牛火锅,4.1,涪城区六一堂路612-2号,18981189820,周一至周日 10:00-22:00,[],True,104.765887,31.424058,45,0,,1
195843254,迷你mini蛋糕,0,游仙区五里堆路10-10号,17378699848,周一至周日 10:00-20:30,[],True,104.765195,31.480157,100,0,,1
194724911,L+私人定制烘培,0,涪城区城南街5号,18681380230,周一至周日 10:00-18:00,[],True,104.775855,31.439202,20,0,,1
3255021,六月雪滋味干锅（万达广场店）,4.7,涪城区花园路9号万达广场3楼(近绵阳火车站),0816-2355766,周一至周日 10:00-22:00  2020-01-24 休息,"[{'iconUrl': 'http://p0.meituan.net/codeman/551290739062eda37e52999e2315f50c1887.png', 'text': '提供wifi'}]",True,104.71912,31.454388,50,225134,六月雪,1
168502763,二娃烧烤,3.5,涪城区六一堂路川音后街祥兴小吃旁,15181630587,周一至周日 15:00-24:00,[],True,104.764967,31.421065,30,0,,1
194430359,班委会老火锅（石桥铺店）,3.8,涪城区飞云大道东段,0816-8722872,周一至周日 10:00-23:30,[],False,104.702906,31.452414,50,0,,1
194003265,甘蔗林,4.7,涪城区临园路东段74号凯德广场负一楼,0816-2860118,周一至周日 10:00-22:00,"[{'iconUrl': 'http://p0.meituan.net/codeman/551290739062eda37e52999e2315f50c1887.png', 'text': '提供wifi'}, {'iconUrl': 'http://p1.meituan.net/codeman/4b1c5696fe5bf2c4d23fb01659b3e68b1960.png', 'text': '停车位'}]",True,104.741203,31.463906,13,0,,1
177739461,重庆劲道鲜菜老火锅,4.5,涪城区双碑中街54号,15281168680,周一至周日 11:00-22:00,[],False,104.689433,31.46757,36,0,,1
193275220,圈粉传统手作冰粉,4.1,涪城区富乐路7-9号,13194881819,周一至周日 11:00-22:30,[],True,104.743505,31.465058,12,0,,1
157793914,满江红火锅【石桥铺店】,4.2,涪城区飞云大道东段18号,0816-2200705,周一至周日 10:00-24:00  2020-01-23至2020-01-25 休息,[],False,104.69917,31.45145,47,761541,满江红火锅,1
162129666,房大厨黄焖鸡,0,涪城区青义镇兴龙村社区二社育才街25号,17309039312/18030983027,周一至周日 10:00-21:00,[],True,104.685369,31.53688,15,0,,1
162179473,重庆小板凳火锅,3,涪城区涪科创园上马西街65号,0816-2918198,周一至周日 10:00-22:00  2020-01-23至2020-01-26 休息,[],False,104.699099,31.489039,42,0,,1
184183204,青菜园子养生汤锅（解放街店）,4.3,涪城区南河坝解放街38号（绵州大剧院对面，公安局斜对面）,0816-2296969,周一至周日 10:00-22:00,[],True,104.756613,31.455445,46,0,,1
162763609,得一精酿啤酒坊,3.5,涪城区体运村路,0816-2110300,周一至周日 09:00-02:00,"[{'iconUrl': 'http://p0.meituan.net/codeman/551290739062eda37e52999e2315f50c1887.png', 'text': '提供wifi'}]",True,104.752641,31.450021,45,0,,1
1714330803,锤大爷美蛙鱼火锅,5,游仙区游仙路175号,0816-2340456,周一至周日 10:00-22:00,[],True,104.774322,31.503286,45,0,,1
187223889,新加坡妈妈烤包,4,涪城区绵州大道中段CBD万达广场3楼,0816-2535007,周一至周日 10:00-21:30,[],True,104.78514,31.412404,15,0,,1
1624589374,闲茶,3.5,涪城区涪城区九洲·又一城,15308113836,周一至周日 09:00-22:00,[],True,104.68534,31.462676,45,0,,1
1404607694,鸡鱼良缘火锅,4.8,游仙区三星路,18030943476,周一至周日 10:00-22:00  2020-01-24至2020-01-30 休息,[],False,104.801671,31.42718,35,0,,1
157748289,曹氏一绝（孙家巷）,5,涪城区孙家巷,17313647807,周一至周日 10:00-22:00  2020-01-22至2020-01-31 休息,[],True,104.75516,31.45627,17,0,,1
99090985,吴记·牛大王秘制清汤鲜黄牛肉,4.3,涪城区跃进路北段恒星商苑113号（华联超市旁）,0816-2685118,周一至周日 全天,[],False,104.73558,31.50196,50,0,,1
1070840392,自贡2019爆炒,0,安州区滨江西路北段2号一期c2栋107-126号,0816-4661699,周一至周日 17:00-01:00,[],True,104.569631,31.539858,33,0,,1
881405377,港火火锅研究所,4.1,涪城区飞云中街,0816-2387870,周一至周日 10:00-01:00  2020-01-23至2020-01-25 休息,[],True,104.699331,31.450025,68,0,,1
157835642,恢记老长沙大香肠,0,涪城区科大路酥香门第拔丝蛋糕门口,13778134795,周一至周日 10:30-22:00,[],False,104.701252,31.540124,0,0,,1
194977919,芝根芝底PIZZA（长虹国际店）,4.5,涪城区跃进路6号长虹国际城一期19幢-1楼9号,0816-2366160/19949593135,周一至周日 10:00-22:00  2020-01-20至2020-01-31 休息,[],True,104.741562,31.468811,25,1643425,芝根芝底,1
171869864,马路边边麻辣烫（万达店）,3,涪城区花园南街56-37号（米兰网咖隔壁）,0816-2399799,周一至周日 09:30-04:00,"[{'iconUrl': 'http://p0.meituan.net/codeman/551290739062eda37e52999e2315f50c1887.png', 'text': '提供wifi'}]",True,104.722239,31.454824,54,0,,1
90530711,巫山纸上烤鱼（万达店）,4.5,涪城区万达商业街9号6栋8号,0816-2572515,周一至周日 10:00-22:00  2020-01-23至2020-01-29 休息,"[{'iconUrl': 'http://p0.meituan.net/codeman/551290739062eda37e52999e2315f50c1887.png', 'text': '提供wifi'}]",True,104.721214,31.453125,49,0,,1
163149827,四喜炭烧屋（新世界百货店）,3.7,涪城区临园路东段新世界百货5楼,0816-2732698,周一至周日 10:00-22:00  2020-01-24至2020-01-27 休息,"[{'iconUrl': 'http://p0.meituan.net/codeman/551290739062eda37e52999e2315f50c1887.png', 'text': '提供wifi'}, {'iconUrl': 'http://p1.meituan.net/codeman/4b1c5696fe5bf2c4d23fb01659b3e68b1960.png', 'text': '停车位'}]",True,104.742772,31.463896,58,0,,1
92207391,一品居黄焖鸡米饭（游仙店）,4.1,游仙区阳光路16号（汉仙桥夜市步行街中间）,0816-6284189,周一至周日 09:00-23:00,"[{'iconUrl': 'http://p0.meituan.net/codeman/551290739062eda37e52999e2315f50c1887.png', 'text': '提供wifi'}]",True,104.770248,31.48316,19,0,,1
191298860,喜记餐厅,3.5,涪城区临园路东段通安巷内百味巷B-8号,15281131433,周一至周日 10:30-21:30,[],True,104.74022,31.462452,19,0,,1
185472099,一把骨（江油宝龙广场店）,4.1,江油市李白大道南二段1号宝龙广场M-F3-004,0816-3269188,周一至周日 11:00-22:00,[],True,104.718149,31.749617,44,1236555,一把骨,1
1729963793,炎煌煲仔小酒馆（国际城店）,3.5,涪城区绵阳市涪城区跃进路6号长虹国际城16栋1-3号,0816-6387722,周一至周日 10:00-22:00,[],True,104.742814,31.469476,26,0,,1
164377373,春风里养身汤锅店,3.8,涪城区普明南路133号,15882840691,周一至周日 11:00-14:00 17:00-22:00,[],True,104.674244,31.471144,40,0,,1
1664388830,小番家成都街头烤肉（涪城万达店）,3.5,涪城区万达广场三楼,0816-6922669,周一至周日 10:30-22:00,[],False,104.720127,31.453356,60,0,,1
1591076930,守柴炉烤鸭（1958店）,4.3,涪城区跃进路50号1958三期21栋2号,0816-2343488,周一至周日 10:00-22:00,[],True,104.745161,31.476485,56,0,,1
182021096,三顾冒菜,3.8,涪城区三海路双圣小区A区47栋4号,15008355242,周一至周日 10:00-21:00,"[{'iconUrl': 'http://p0.meituan.net/codeman/551290739062eda37e52999e2315f50c1887.png', 'text': '提供wifi'}]",True,104.59789,31.461879,35,110795,三顾冒菜,1
194052313,味港·牛排火锅,4.1,涪城区玉泉北路,0816-2282889,周一至周日 11:00-22:00,[],False,104.715645,31.484382,66,0,,1
194623230,93#时光印记网烧烤肉（双碑店）,5,涪城区绵兴东路37号,0816-3535558,周一至周日 10:00-23:30  2020-01-25至2020-01-27 休息,"[{'iconUrl': 'http://p0.meituan.net/codeman/551290739062eda37e52999e2315f50c1887.png', 'text': '提供wifi'}, {'iconUrl': 'http://p1.meituan.net/codeman/4b1c5696fe5bf2c4d23fb01659b3e68b1960.png', 'text': '停车位'}]",True,104.695819,31.462672,57,0,,1
195898486,浔茶（红星街店）,4.3,涪城区红星街33号,15283830751,周一至周日 10:00-21:30,"[{'iconUrl': 'http://p0.meituan.net/codeman/551290739062eda37e52999e2315f50c1887.png', 'text': '提供wifi'}]",True,104.756102,31.458015,10,0,,1
193836542,醉邛海大凉山特色网烧,4.7,涪城区花园南街6号,19114036045/18381693550,周一至周日 11:00-02:00,"[{'iconUrl': 'http://p0.meituan.net/codeman/551290739062eda37e52999e2315f50c1887.png', 'text': '提供wifi'}]",False,104.714014,31.450596,49,0,,1
193441754,眷恋老火锅,4.3,涪城区文武西路南区花园底商,13398399830,周一至周日 11:00-23:00  2020-01-24至2020-01-31 休息,[],True,104.762932,31.407469,40,0,,1
156865550,蜀大侠火锅（芙蓉汉城店）,4.7,游仙区一环路东段芙蓉汉城2期N39号,0816-2799858,周一至周日 10:00-22:30,"[{'iconUrl': 'http://p0.meituan.net/codeman/551290739062eda37e52999e2315f50c1887.png', 'text': '提供wifi'}, {'iconUrl': 'http://p1.meituan.net/codeman/4b1c5696fe5bf2c4d23fb01659b3e68b1960.png', 'text': '停车位'}]",True,104.770667,31.475444,60,0,,1
85182496,农家八大碗特色烤全羊、烤羊排,4.2,涪城区临园路西段90号新康花园7幢3-9号,0816-2209525,周一至周日 全天,"[{'iconUrl': 'http://p0.meituan.net/codeman/551290739062eda37e52999e2315f50c1887.png', 'text': '提供wifi'}, {'iconUrl': 'http://p1.meituan.net/codeman/4b1c5696fe5bf2c4d23fb01659b3e68b1960.png', 'text': '停车位'}]",False,104.70674,31.45804,36,0,,1
535872908,青桔和木鱼,5,涪城区警钟街30-1号,18048180233,周一至周日 10:00-22:00  2020-02-06至2020-02-29 10:00-19:00,"[{'iconUrl': 'http://p0.meituan.net/codeman/551290739062eda37e52999e2315f50c1887.png', 'text': '提供wifi'}]",False,104.754952,31.458201,19,0,,1
194899905,憨起劲焖烤（平政店）,5,涪城区高水南街73号,13308118840,周一至周日 17:00-02:00,[],True,104.735186,31.488502,48,0,,1
191106841,鹿锦记全鹿锅,4.1,涪城区火炬西街南段,15983613336,周一至周日 10:00-22:00,[],False,104.685456,31.458075,195,0,,1
1183114960,荣耀岁月主题餐厅（高新旗舰店）,3.5,涪城区九洲·又一城一期,0816-8772877/18280777778,周一至周日 10:00-22:00,[],False,104.68769,31.46265,50,0,,1
186774858,重庆牛市口地摊麻辣烫（平政店）,3,涪城区高水南街长虹大道北段53号,0816-6357377,周一至周日 09:30-23:00,[],False,104.734751,31.488243,50,0,,1
185605262,藕然间·專注藕湯,4.9,江油市江油市太华路北段24号,0816-3257557/13458304616,周一至周日 09:00-22:00,"[{'iconUrl': 'http://p0.meituan.net/codeman/551290739062eda37e52999e2315f50c1887.png', 'text': '提供wifi'}]",False,104.732837,31.773385,37,0,,1
1566955500,K.F.G唛乐基汉堡炸鸡饮品,3.5,涪城区跃进路北段83号长虹世纪城二期36栋1层2号,13378161619,周一至周日 10:00-21:30,[],True,104.739183,31.492132,20,0,,1
1363099946,氧立方火盆小香猪,3.5,盐亭县s101万安社区9组,0816-7327168/19113648841,周一至周日 16:30-23:00,"[{'iconUrl': 'http://p0.meituan.net/codeman/551290739062eda37e52999e2315f50c1887.png', 'text': '提供wifi'}, {'iconUrl': 'http://p1.meituan.net/codeman/4b1c5696fe5bf2c4d23fb01659b3e68b1960.png', 'text': '停车位'}]",True,105.405482,31.243608,0,0,,1
1489524278,老佛爷铜炉蛙锅（绵阳旗舰店）,4.5,涪城区上马西街（望蜀苑）65号,0816-2126999,周一至周日 10:00-22:00  2020-01-24至2020-01-27 休息,[],False,104.697793,31.489603,54,0,,1
1413627115,锅之恋鲜菜火锅（松垭店）,3.5,游仙区涪松街57号,0816-2660022,周一至周日 09:00-24:00,[],True,104.84629,31.378618,0,0,,1
192594497,宜知香特色串捞（奥莱店）,4.3,涪城区弘光路（小火焱对面2-6号）,0816-2666869/15228738873,周一至周日 11:00-23:30,"[{'iconUrl': 'http://p0.meituan.net/codeman/551290739062eda37e52999e2315f50c1887.png', 'text': '提供wifi'}, {'iconUrl': 'http://p1.meituan.net/codeman/4b1c5696fe5bf2c4d23fb01659b3e68b1960.png', 'text': '停车位'}]",True,104.651311,31.45762,40,0,,1
994214680,一花一叶蔬食火锅,3.5,涪城区长虹大道北段35-2号,0816-2109288,周一至周日 10:00-22:00,[],False,104.739119,31.48509,73,0,,1
839487122,蜀德火锅（上马新村店）,3.9,涪城区上马北街26号4栋8号,18280109650,周一至周日 10:00-22:00,[],False,104.69864,31.48955,40,0,,1
783761571,锅先森台式卤肉饭,4.9,涪城区涪城金街花园路9号,13795779707,周一至周日 10:00-21:00,"[{'iconUrl': 'http://p0.meituan.net/codeman/551290739062eda37e52999e2315f50c1887.png', 'text': '提供wifi'}]",False,104.721326,31.453225,16,0,,1
poiId,name,avgScore,address,phone,openTime,extraInfos,hasFoodSafeInfo,longitude,latitude,avgPrice,brandId,brandName,showStatus
40451323,西蜀大宅门火锅（直营店）（涪城路店）,4.5,涪城区涪城路169号（清真寺旁）,0816-2395758,周一至周日 10:00-23:30  2020-01-24至2020-01-26 休息,"[{'iconUrl': 'http://p1.meituan.net/codeman/4b1c5696fe5bf2c4d23fb01659b3e68b1960.png', 'text': '停车位'}]",True,104.75088,31.45646,61,0,,1
753333092,井牧炭火烧肉·花园餐吧,5,涪城区兴达街中环美食城禾悦烤肉旁,19960503250,周一至周日 10:00-23:30  2020-01-23至2020-01-24 休息,[],False,104.752423,31.461471,65,0,,1
52507372,晓倩家烤肉馆,4.8,三台县北坝耀森路耀森花园休闲会所旁,0816-5265558,周一至周日 09:00-22:00,[],True,105.089346,31.101037,55,0,,1
85940547,上雅烤肉吧,4.5,三台县学涪路滨江二期A区外滩花园酒店1楼,15681912283,周一至周日 10:30-22:30,"[{'iconUrl': 'http://p0.meituan.net/codeman/551290739062eda37e52999e2315f50c1887.png', 'text': '提供wifi'}]",True,105.098939,31.085855,50,0,,1
193006556,蜀虾红（万达店）,5,涪城区花园路9号绵阳涪城万达广场12幢1单元1楼12号,13648111138/19949575534,春季、夏季、秋季 周一至周日 16:00-04:00  冬季 周一至周日 10:00-14:00 16:30-22:00,"[{'iconUrl': 'http://p0.meituan.net/codeman/551290739062eda37e52999e2315f50c1887.png', 'text': '提供wifi'}, {'iconUrl': 'http://p1.meituan.net/codeman/4b1c5696fe5bf2c4d23fb01659b3e68b1960.png', 'text': '停车位'}]",True,104.721755,31.455102,66,0,,1
745611667,泥巴小院市井火锅（绵阳旗舰店）,5,涪城区上马南街,18599996922/0816-2324866,周一至周日 10:00-23:30,[],True,104.698956,31.487531,45,0,,1
193978949,嘎嘎鸭脑壳,4.4,游仙区剑南路东段一环路东段173-4号,0816-2171122,周一至周日 11:00-14:00 17:00-03:00  2020-01-23至2020-01-26 休息,"[{'iconUrl': 'http://p0.meituan.net/codeman/551290739062eda37e52999e2315f50c1887.png', 'text': '提供wifi'}]",True,104.770427,31.475276,58,0,,1
194907873,九月栗乡秘制板栗养生鸡（园艺山店）,5,涪城区园艺东街北段58号,0816-6932818,周一至周日 11:00-22:00,[],False,104.713683,31.487046,50,0,,1
187296353,江湖火锅,4.7,涪城区临园路西段5号,0816-2980255,周一至周日 11:00-23:00  2020-01-24至2020-01-27 休息,"[{'iconUrl': 'http://p0.meituan.net/codeman/551290739062eda37e52999e2315f50c1887.png', 'text': '提供wifi'}]",True,104.725042,31.458742,57,0,,1
157767228,蜀山冰与火火锅,4.5,游仙区一环路东段198号,0816-2197618/2252168,周一至周日 11:00-13:30 16:30-23:00,[],True,104.771074,31.476225,55,0,,1
194367228,小黄牛涮烤养生汤锅,4.6,涪城区塘坊大道,18081268677,周一至周日 10:00-22:00  2020-01-24至2020-01-26 休息,[],False,104.792567,31.401439,55,0,,1
184587329,小火炎火锅,4.9,涪城区弘光路15号道奇商住楼1号2层,18048174827/0816-2882177,周一至周日 10:00-22:00  2020-01-24至2020-01-26 休息,"[{'iconUrl': 'http://p0.meituan.net/codeman/551290739062eda37e52999e2315f50c1887.png', 'text': '提供wifi'}, {'iconUrl': 'http://p1.meituan.net/codeman/4b1c5696fe5bf2c4d23fb01659b3e68b1960.png', 'text': '停车位'}]",True,104.650852,31.459367,48,0,,1
179616452,火凤凰冷锅串串,5,涪城区万达商业街出3号门右边50米,0816-2198099/17309047727,周一至周日 11:30-23:00,[],True,104.7213,31.453449,48,0,,1
1352739732,康巴拉牦牛烤涮一体主题火锅,3.5,涪城区虹苑北路27号凝祥晓月南段,15228392012,周一至周日 09:00-22:00,[],False,104.66537,31.463549,48,0,,1
170651685,柒味餐饮（经开店）,3.8,涪城区绵州大道中段1号（绵阳神州南都1号门隔壁）,0816-2725388,周一至周日 11:00-14:00 17:00-21:00  2020-01-24至2020-01-25 休息,[],True,104.776244,31.420272,42,0,,1
168774363,鱼蛙传奇美蛙鱼头火锅（永兴店）,5,涪城区兴华南路世纪新城1栋1楼11号（轩宏国际旁）,0816-2928082,周一至周日 10:00-22:00,[],False,104.643472,31.457573,40,0,,1
95038764,宽巷子冒菜（中央美地店）,4.8,涪城区涪城路隆盛中央美地1-1-17号（清真寺旁）,13568432133,周一至周日 10:00-21:00,"[{'iconUrl': 'http://p0.meituan.net/codeman/551290739062eda37e52999e2315f50c1887.png', 'text': '提供wifi'}]",True,104.751333,31.457044,20,0,,1
159104654,熊熊之家休闲山庄,0,江油市文胜镇安顺村二组,18980941579,周一至周日 08:00-24:00,"[{'iconUrl': 'http://p1.meituan.net/codeman/4b1c5696fe5bf2c4d23fb01659b3e68b1960.png', 'text': '停车位'}]",True,105.024864,32.015163,50,0,,1
1192741289,味之绝热血美蛙鱼（高水南街店）,4.2,涪城区高水南街16-2号,15390271315/15228714831,周一至周日 10:00-22:00,[],True,104.74176,31.489866,50,0,,1
165677378,弄鱼,3.3,涪城区花园路9号万达广场3楼,0816-2928076,周一至周日 10:00-22:00,[],True,104.720634,31.453259,57,0,,1
164167576,川魂帽牌货冒菜,4.1,游仙区剑南路东段158号1幢6号,17381698396,周一至周日 09:00-21:30,[],True,104.762333,31.469073,17,0,,1
1274855815,邓莽子重庆老火锅,4.5,涪城区卓信金楠天街,13980943628,周一至周日 10:00-22:00,[],True,104.794308,31.401017,50,0,,1
195075324,渝和麻麻鱼府（梓潼店）,4.6,梓潼县桂香路南段303号,0816-3554001,周一至周日 10:00-22:00,[],False,105.16674,31.629261,35,0,,1
194410057,齐庆美蛙鱼头（高水店）,3.4,涪城区高水南街75号,18696778678/0816-2202444,周一至周日 10:00-24:00,[],True,104.73527,31.488179,56,0,,1
122008235,牛大王秘制清汤鲜黄牛肉,4.5,涪城区永安路星和二手车路口往成都方向300米（红灯笼豆花牛肉对面）,0816-2579616/18981109549,周一至周日 09:30-22:30,"[{'iconUrl': 'http://p0.meituan.net/codeman/551290739062eda37e52999e2315f50c1887.png', 'text': '提供wifi'}, {'iconUrl': 'http://p1.meituan.net/codeman/4b1c5696fe5bf2c4d23fb01659b3e68b1960.png', 'text': '停车位'}]",True,104.627116,31.464758,38,0,,1
1438873121,小牛哥私房老火锅,4.5,涪城区元通路265号,15308115987/15882771771,周二至周日 10:00-14:00 16:30-22:00,"[{'iconUrl': 'http://p0.meituan.net/codeman/551290739062eda37e52999e2315f50c1887.png', 'text': '提供wifi'}]",False,104.71508,31.46788,46,0,,1
193951435,宽窄世家火锅,4.7,涪城区涪城路64号,0816-2211070,周一至周日 10:00-23:00  2020-01-24至2020-01-30 休息,[],True,104.750373,31.455809,45,0,,1
193304800,Tretar翠汀,0,涪城区涪城路,18981146060,周一至周日 12:30-22:00,"[{'iconUrl': 'http://p0.meituan.net/codeman/551290739062eda37e52999e2315f50c1887.png', 'text': '提供wifi'}]",False,104.750459,31.460562,0,0,,1
1563239782,仙海胖哥鱼庄,0,涪城区涪城区普明顺风苑127-12号,13458442442,周一至周日 10:00-22:00,[],True,104.674964,31.470947,50,0,,1
192633389,Honey Kids亲子餐厅（毅德店）,3.7,涪城区毅德商贸城A区毅锦街4号1区38幢1号,0816-2810625,周一至周日 10:00-21:00  2020-01-24至2020-01-30 休息,"[{'iconUrl': 'http://p0.meituan.net/codeman/551290739062eda37e52999e2315f50c1887.png', 'text': '提供wifi'}, {'iconUrl': 'http://p1.meituan.net/codeman/4b1c5696fe5bf2c4d23fb01659b3e68b1960.png', 'text': '停车位'}]",True,104.72384,31.44375,91,0,,1
1403485526,奇味大咖火锅,0,江油市建设中路东方明珠,17340460518,周一至周日 10:00-22:00,[],False,104.76191,31.773008,28,0,,1
190438551,谢记肥肠鸡冷锅串串,4.2,涪城区弘光路（城市奥莱背后）,15397779793,周一至周日 11:00-21:30  2020-01-24至2020-01-30 休息,[],True,104.64998,31.458002,37,0,,1
195019730,鸽漫天（二桥店）,3.5,涪城区跃进路北段一环路北段25号,0816-2886388,周一至周日 10:00-22:00,[],True,104.742881,31.485376,76,0,,1
195623550,味De全集,5,涪城区上马西街望蜀苑一号楼二楼,17745440829,周一至周日 10:00-21:00,"[{'iconUrl': 'http://p0.meituan.net/codeman/551290739062eda37e52999e2315f50c1887.png', 'text': '提供wifi'}]",False,104.698083,31.489479,30,0,,1
186869148,三人行烤肉（游仙店）,5,游仙区紫星街5-1号,18281598166,周一至周日 17:00-00:00,[],True,104.769217,31.484602,40,0,,1
521519433,麻姐贰火火锅串串,5,梓潼县中和街西段277号,0816-8260998,周一至周日 10:00-22:00,"[{'iconUrl': 'http://p0.meituan.net/codeman/551290739062eda37e52999e2315f50c1887.png', 'text': '提供wifi'}, {'iconUrl': 'http://p1.meituan.net/codeman/4b1c5696fe5bf2c4d23fb01659b3e68b1960.png', 'text': '停车位'}]",True,105.156141,31.632244,43,0,,1
119485251,梵谷潮汕牛肉（石桥铺店）,4.7,涪城区石桥铺樊华大桥桥头，樊华似锦三期,0816-2816066,周一至周日 09:30-14:00 16:30-22:00  2020-01-24至2020-01-27 休息,[],True,104.70305,31.45207,74,0,,1
771080700,三把火大凉山特色网烤（八角南路店）,3.5,涪城区八角南路八角社区第五居民点5栋五单元1楼6号,0816-8705756/13981136936,周一至周日 17:00-24:00  2020-01-24至2020-01-30 休息,"[{'iconUrl': 'http://p0.meituan.net/codeman/551290739062eda37e52999e2315f50c1887.png', 'text': '提供wifi'}, {'iconUrl': 'http://p1.meituan.net/codeman/4b1c5696fe5bf2c4d23fb01659b3e68b1960.png', 'text': '停车位'}]",True,104.684177,31.482083,40,0,,1
180521344,鲍师傅（长兴商场店）,4,涪城区北街A1区长兴商场1楼,17738703047,周一至周日 10:00-22:00,"[{'iconUrl': 'http://p0.meituan.net/codeman/551290739062eda37e52999e2315f50c1887.png', 'text': '提供wifi'}]",True,104.753277,31.461033,16,0,,1
95323637,第一佳大鸡排（师院职院店）,0,游仙区绵阳职业技术学院后门,15882893061,周一至周日 10:00-21:00  2020-01-24至2020-01-30 休息,[],True,104.782561,31.4896,13,0,,1
162080113,蜀皇全牛宴菌汤鲜黄牛肉,3.7,涪城区滨河南路东段37号（老茶树御都温泉南侧20米）,0816-2535299/15228428082,周一至周日 11:00-23:00,[],False,104.733987,31.456162,50,0,,1
169386788,麻渣渣洪七公串串,3.6,涪城区花园南街61-1号,0816-2883886,周一至周日 10:00-02:00  2020-01-24至2020-01-26 休息,[],True,104.722706,31.455391,56,0,,1
164588491,万度鲜美蛙鱼头火锅店,4.5,游仙区游仙路173号百乐汇广场1201号（游仙法院对面）,0816-2195588/13308117033,周一至周日 11:00-14:00 16:30-22:00,"[{'iconUrl': 'http://p0.meituan.net/codeman/551290739062eda37e52999e2315f50c1887.png', 'text': '提供wifi'}, {'iconUrl': 'http://p1.meituan.net/codeman/4b1c5696fe5bf2c4d23fb01659b3e68b1960.png', 'text': '停车位'}]",True,104.774286,31.503823,53,0,,1
41943056,快乐柠檬（凯德店）,4.2,涪城区临园路东段凯德广场二期B05-04（五楼）,0816-2966138,周一至周日 10:00-21:30  2020-01-24 休息,[],True,104.741489,31.464246,10,542112,快乐柠檬,1
1818889411,一么多原味火锅（西科大店）,4.4,涪城区青义镇青羊中街青羊村农贸市场39号,0816-8390888,周一至周日 11:00-21:00  2020-01-23至2020-01-27 休息,"[{'iconUrl': 'http://p0.meituan.net/codeman/551290739062eda37e52999e2315f50c1887.png', 'text': '提供wifi'}, {'iconUrl': 'http://p1.meituan.net/codeman/4b1c5696fe5bf2c4d23fb01659b3e68b1960.png', 'text': '停车位'}]",False,104.70255,31.54248,45,0,,1
1892699113,蜀景轩北京烤鸭酒楼（御营坝店）,3.5,涪城区御安街14号（御营坝消防支队斜对面一楼）,17386768686,周一至周日 10:00-21:00,"[{'iconUrl': 'http://p0.meituan.net/codeman/551290739062eda37e52999e2315f50c1887.png', 'text': '提供wifi'}]",False,104.737961,31.455851,42,0,,1
41063517,佳和耗儿鱼,3,涪城区园艺东街北段58号奥林春天二期10棟1层2号,0816-2333944,周一至周日 09:00-21:30,[],True,104.714608,31.486267,92,0,,1
159627626,三顾冒菜（城南旗舰店）,3.8,涪城区城南路城南新天地11栋1号,13508108286,周一至周日 10:00-22:00,[],True,104.78176,31.43648,30,110795,三顾冒菜,1
179449170,巷子里头麻辣烫,4,涪城区花园南街花园路9号,0816-2302662,周一至周日 11:30-00:00,"[{'iconUrl': 'http://p0.meituan.net/codeman/551290739062eda37e52999e2315f50c1887.png', 'text': '提供wifi'}]",True,104.721333,31.454974,56,0,,1
1639980685,泰鲜了泰式米粉（阳光清华店）,3.5,涪城区园艺东街9号,15928212823,周一至周日 09:00-21:00,"[{'iconUrl': 'http://p0.meituan.net/codeman/551290739062eda37e52999e2315f50c1887.png', 'text': '提供wifi'}, {'iconUrl': 'http://p1.meituan.net/codeman/4b1c5696fe5bf2c4d23fb01659b3e68b1960.png', 'text': '停车位'}]",True,104.701369,31.481946,10,0,,1
182411045,小邓石棉铁板烧,4.9,涪城区石塘路14号,15181232842,周一至周日 16:00-23:30  2020-01-23至2020-01-30 休息,[],True,104.743278,31.449743,53,0,,1
186236042,诗玛烘焙,4.1,涪城区涪城路47号,13350950924,周一至周日 07:00-21:00,[],True,104.751049,31.46531,25,0,,1
1053636840,熹田咕噜鱼（海悦银河城城店）,4.5,游仙区东津路海悦银河城3层3035号商铺,0816-2130218,周一至周日 10:00-22:00  2020-01-24至2020-01-29 休息,[],True,104.770649,31.466909,23,0,,1
163990886,麦佳鸡汁水饺（园艺店）,3.7,涪城区玉泉中路2号喜来公社6幢1-4号,0816-6024826,周一至周日 09:00-22:00,[],True,104.708196,31.488083,34,0,,1
106451442,士百士（万兴街店）,4.7,涪城区普明中街1号（近万兴街）,18784015753,周一至周日 10:00-23:00,[],True,104.673655,31.473488,16,0,,1
164921972,嘉喜花园酒店,5,涪城区长虹大道南段清华园旁,13458300078/13881115441,周一至周日 09:30-13:30 17:00-20:30,"[{'iconUrl': 'http://p0.meituan.net/codeman/551290739062eda37e52999e2315f50c1887.png', 'text': '提供wifi'}, {'iconUrl': 'http://p1.meituan.net/codeman/4b1c5696fe5bf2c4d23fb01659b3e68b1960.png', 'text': '停车位'}]",True,104.766817,31.442163,61,0,,1
1011892555,千寻味原味火锅,4.2,江油市纪念碑街中段381号,15308342498,周一至周日 10:00-23:30,[],False,104.729764,31.770989,30,0,,1
165790770,景福缘庭院虾,4.1,涪城区灯塔路鑫杰驾校旁,13541755768,周一至周日 17:00-01:00,[],True,104.69918,31.525065,63,0,,1
192186454,集渔泰式海鲜火锅.花胶鲍鱼鸡,4.3,涪城区滨河北路中段桂园雅居四期加鑫名人酒店,0816-2221366,周一至周日 10:00-22:00  2020-01-24至2020-01-27 休息,"[{'iconUrl': 'http://p0.meituan.net/codeman/551290739062eda37e52999e2315f50c1887.png', 'text': '提供wifi'}, {'iconUrl': 'http://p1.meituan.net/codeman/4b1c5696fe5bf2c4d23fb01659b3e68b1960.png', 'text': '停车位'}]",True,104.718833,31.450942,105,0,,1
913053829,联手捞鲜鱼坊,3.5,安州区文胜路东段文胜路47号,0816-4323033,周一至周日 10:00-22:00,[],False,104.563842,31.536239,29,0,,1
192807645,食客来特色碳火烤鱼中餐,5,涪城区青义镇兴龙村四社清华西路安置房小区7-12号,0816-2625633,周一至周日 10:30-22:00  2020-01-24至2020-01-30 休息,"[{'iconUrl': 'http://p0.meituan.net/codeman/551290739062eda37e52999e2315f50c1887.png', 'text': '提供wifi'}, {'iconUrl': 'http://p1.meituan.net/codeman/4b1c5696fe5bf2c4d23fb01659b3e68b1960.png', 'text': '停车位'}]",True,104.683733,31.531134,48,0,,1
60645648,吉咖啡森活馆,4,涪城区长虹大道南段126创意园区内休闲会馆对面,0816-2202768/13301759729,周一至周日 10:00-22:00,"[{'iconUrl': 'http://p0.meituan.net/codeman/551290739062eda37e52999e2315f50c1887.png', 'text': '提供wifi'}, {'iconUrl': 'http://p1.meituan.net/codeman/4b1c5696fe5bf2c4d23fb01659b3e68b1960.png', 'text': '停车位'}]",True,104.75601,31.43921,93,0,,1
191468662,木森炭火烤肉（CBD万达店）,3.9,涪城区三江大道万达金街4号门旁53-54号,15892646446,周一至周日 10:00-22:30  2020-01-23至2020-01-28 休息,[],False,104.78477,31.411179,51,0,,1
728104082,优味客快餐,4.6,涪城区新华巷临园路东段40号,0816-2109522,周一至周日 10:00-22:00,[],True,104.751459,31.463589,18,0,,1
193921324,就三样,3.5,涪城区金菊街38号,0816-2377155,周一至周日 10:00-22:00,[],False,104.722229,31.453586,56,0,,1
111441997,福尛满,5,涪城区园艺东街阳光清华A区,0816-2321777,周一至周日 10:00-22:00,"[{'iconUrl': 'http://p0.meituan.net/codeman/551290739062eda37e52999e2315f50c1887.png', 'text': '提供wifi'}, {'iconUrl': 'http://p1.meituan.net/codeman/4b1c5696fe5bf2c4d23fb01659b3e68b1960.png', 'text': '停车位'}]",True,104.700666,31.481659,47,0,,1
187285902,八十八屋寿司（中沅广场店）,4.7,涪城区中沅广场1幢1-2号4楼商铺,0816-6920220/17381665543,周一至周日 10:00-21:30  2020-01-23至2020-01-28 休息,"[{'iconUrl': 'http://p0.meituan.net/codeman/551290739062eda37e52999e2315f50c1887.png', 'text': '提供wifi'}]",True,104.695556,31.463403,33,0,,1
195911762,失眠烧烤（南河店）,5,涪城区一环路南段195号,0816-2967789/18780526282,周一至周日 17:00-02:00,"[{'iconUrl': 'http://p0.meituan.net/codeman/551290739062eda37e52999e2315f50c1887.png', 'text': '提供wifi'}]",True,104.76014,31.450738,64,0,,1
189067086,味滋家餐厅,0,涪城区永兴镇永安路,15386661457,周一至周日 10:00-22:00  2020-01-24至2020-01-27 休息,[],False,104.630324,31.464441,27,0,,1
95982611,野烧烤,4.6,涪城区花园南街66-6号,15390482267/18080268143,周一至周日 17:00-02:00  2020-01-23至2020-01-29 休息,"[{'iconUrl': 'http://p0.meituan.net/codeman/551290739062eda37e52999e2315f50c1887.png', 'text': '提供wifi'}]",True,104.723217,31.455153,39,0,,1
189730259,张记木桶鱼,4.1,涪城区普明中路铂金时代北门（正祺烟酒二楼）,13398378779,周一至周日 09:00-22:00,"[{'iconUrl': 'http://p0.meituan.net/codeman/551290739062eda37e52999e2315f50c1887.png', 'text': '提供wifi'}]",True,104.678072,31.471809,53,0,,1
185430154,（清真）新疆火焰山红孩儿羊肉串（涪城万达店）,3.9,涪城区滨河北路中段1-6号,18628974442,周一至周日 10:00-23:30,"[{'iconUrl': 'http://p0.meituan.net/codeman/551290739062eda37e52999e2315f50c1887.png', 'text': '提供wifi'}]",True,104.721302,31.452203,47,0,,1
159385073,鱼介炭火烤鱼,3.4,涪城区乐荟城一楼104-105号,0816-2292866,周一至周日 11:00-23:00,[],True,104.705789,31.484466,59,0,,1
83070506,羌城羌味生态园林火锅,4.5,北川羌族自治县安昌镇安州大道13号,0816-4556189,周一至周日 09:00-22:00,"[{'iconUrl': 'http://p1.meituan.net/codeman/4b1c5696fe5bf2c4d23fb01659b3e68b1960.png', 'text': '停车位'}]",True,104.424603,31.643973,40,0,,1
132633460,鼎香时代·私房菜·汤锅·干锅（龙门店）,3.5,涪城区龙门镇文景路13号,13981116839,周一至周日 10:00-22:00,[],False,104.695562,31.558993,36,0,,1
186404866,守柴炉烤鸭（CBD万达店）,3.9,涪城区石桌子街绵阳CBD万达广场3F,0816-2813266,周一至周日 11:00-21:00,[],True,104.785377,31.412305,53,0,,1
42448991,伟娃子石锅豆花鱼永兴总店,3.5,涪城区绵兴西路52-8号,13689686793/18608169117,周一至周日 09:30-00:00,"[{'iconUrl': 'http://p0.meituan.net/codeman/551290739062eda37e52999e2315f50c1887.png', 'text': '提供wifi'}, {'iconUrl': 'http://p1.meituan.net/codeman/4b1c5696fe5bf2c4d23fb01659b3e68b1960.png', 'text': '停车位'}]",True,104.62978,31.4582,0,0,,1
150331661,麦香园蛋糕（平政店）,5,涪城区宇虹北街24号（西二巷与长虹大道北段交叉口西150米）,18881111093,周一至周日 05:00-22:00,"[{'iconUrl': 'http://p0.meituan.net/codeman/551290739062eda37e52999e2315f50c1887.png', 'text': '提供wifi'}, {'iconUrl': 'http://p1.meituan.net/codeman/4b1c5696fe5bf2c4d23fb01659b3e68b1960.png', 'text': '停车位'}]",True,104.737484,31.486074,35,0,,1
177912912,鑫汇淼餐馆·东北私家菜,4.3,涪城区塘坊大道342号（九州对面）,13796792080,周一至周日 09:00-22:00,[],True,104.787477,31.397819,29,0,,1
102383176,味之绝美蛙鱼头火锅（江油店）,5,江油市白云路125号（川信巷一口钟）,0816-3275118,周一至周日 10:00-14:00 16:30-22:00,"[{'iconUrl': 'http://p0.meituan.net/codeman/551290739062eda37e52999e2315f50c1887.png', 'text': '提供wifi'}]",True,104.74118,31.776866,57,2499558,味之绝热血美蛙鱼,1
1540553537,留香记汤锅,4.8,游仙区剑南路东段一环路东段218号,0816-2286818,周一至周日 10:00-22:00  2020-01-24至2020-01-25 休息 2020-01-26 17:00-21:30,[],False,104.771568,31.477456,49,0,,1
164117523,三牦记（绵阳店）,4.7,涪城区涪滨河北路中段175号枫璟398小区A区1楼1号（原售房部1楼）,0816-2516688,周一至周日 09:00-22:00  2020-01-23至2020-01-25 休息,"[{'iconUrl': 'http://p0.meituan.net/codeman/551290739062eda37e52999e2315f50c1887.png', 'text': '提供wifi'}, {'iconUrl': 'http://p1.meituan.net/codeman/4b1c5696fe5bf2c4d23fb01659b3e68b1960.png', 'text': '停车位'}]",False,104.68915,31.455995,60,0,,1
163205878,京城福源祥北京烤鸭,4.2,涪城区西山东路90号院内14栋39号一楼,18781190533,周一至周日 09:00-20:30,"[{'iconUrl': 'http://p1.meituan.net/codeman/4b1c5696fe5bf2c4d23fb01659b3e68b1960.png', 'text': '停车位'}]",True,104.74465,31.478305,15,0,,1
1802114890,喜.秋满里,3.5,涪城区长虹大道南段172号,0816-2558899,周一至周日 11:00-14:00 17:30-22:00  2020-01-23至2020-01-26 休息,[],True,104.757368,31.43945,91,0,,1
192261834,地古牛养生汤锅（奥莱店）,3.5,涪城区绵兴中路城市奥莱广场后大门二楼（小火焱对面）,0816-2779966/18780444555,周一至周日 10:00-22:00  2020-01-23至2020-01-26 休息,"[{'iconUrl': 'http://p0.meituan.net/codeman/551290739062eda37e52999e2315f50c1887.png', 'text': '提供wifi'}]",True,104.651523,31.457536,64,0,,1
194681178,林小馋烤肉铺（126店）,3.5,涪城区长虹大道南段172号,19981162151,周一至周日 11:00-14:00 17:00-22:00  2020-01-24至2020-01-26 休息,[],False,104.758371,31.438163,62,0,,1
194702372,牵肠挂肚市井火锅（万达店）,4.3,涪城区花园南街61-7号,0816-2711135,周一至周日 10:00-23:30  2020-01-24至2020-01-26 休息,"[{'iconUrl': 'http://p0.meituan.net/codeman/551290739062eda37e52999e2315f50c1887.png', 'text': '提供wifi'}, {'iconUrl': 'http://p1.meituan.net/codeman/4b1c5696fe5bf2c4d23fb01659b3e68b1960.png', 'text': '停车位'}]",False,104.722885,31.455379,57,0,,1
606922393,洪七公吃串串（梓潼店）,3.5,梓潼县桂香路南段兴发广场三楼,0816-8575109,周一至周日 11:00-22:00,"[{'iconUrl': 'http://p0.meituan.net/codeman/551290739062eda37e52999e2315f50c1887.png', 'text': '提供wifi'}]",False,105.165919,31.630258,40,0,,1
585184732,樂棠府豆腐脑钵钵鸡（游仙店）,3.5,游仙区五里堆南路16号4栋2单元,13981140678,周一至周日 09:00-21:00,[],True,104.76588,31.47898,20,0,,1
194906155,麻渣渣洪七公串串（高新店）,3.5,涪城区虹苑北路东段5-23号九洲又一城2期23号门面,15181666856/18780489096,周一至周日 11:00-23:00  2020-01-24至2020-01-26 休息,"[{'iconUrl': 'http://p0.meituan.net/codeman/551290739062eda37e52999e2315f50c1887.png', 'text': '提供wifi'}, {'iconUrl': 'http://p1.meituan.net/codeman/4b1c5696fe5bf2c4d23fb01659b3e68b1960.png', 'text': '停车位'}]",True,104.68697,31.46247,52,0,,1
1460565328,玖味小火锅,3.5,江油市明月小区(清香园街)6号,13330905180,,[],False,104.74351,31.775098,0,0,,1
poiId,name,avgScore,address,phone,openTime,extraInfos,hasFoodSafeInfo,longitude,latitude,avgPrice,brandId,brandName,showStatus
784834469,酒的故事,3.5,江油市庐山路中段47号,17308197007,周一至周日 09:00-22:00,[],True,104.725212,31.772422,40,0,,1
194470110,三老俵肥肠鸡（经开区万达店）,3.2,涪城区三江大道万达广场室内步行街三楼3057号,0816-2535522,周一至周日 10:00-22:00  2020-01-21至2020-02-03 休息,[],False,104.784718,31.411897,50,0,,1
194361805,酒花烧肉,3.7,涪城区马家巷红星街62-10号,13881012582,周一至周日 11:00-22:00  2020-01-23至2020-01-27 休息,[],False,104.754725,31.45566,71,0,,1
177455166,老友记宜宾烧烤（石桥铺店）,4,涪城区飞云中街6号上河郦岛12幢1层4号3-27号商铺,0816-2983932,周一至周日 16:00-02:00,"[{'iconUrl': 'http://p0.meituan.net/codeman/551290739062eda37e52999e2315f50c1887.png', 'text': '提供wifi'}]",True,104.698516,31.453066,80,0,,1
193596323,瓦舍越南瓦片烤肉,3.6,涪城区马家巷5号院内,0816-2963828/18683671253,周一至周日 11:00-23:00,[],False,104.75451,31.457349,57,0,,1
193299572,芝根芝底（绵阳江油店）,4.3,江油市火炮街39号,0816-3873655,周一至周日 10:00-22:00  2020-01-20至2020-01-31 休息,[],True,104.744855,31.775586,25,1643425,芝根芝底,1
192904296,钵钵鸡汤饭,3.9,涪城区花园路万达广场三楼,18011131906,周一至周日 10:00-22:00,[],True,104.72032,31.45265,20,0,,1
167001767,潼关肉夹馍,4.4,涪城区涪城路41号中环时代购物广场中环电影城二楼,18080252031,周一至周日 10:00-21:00,[],True,104.752144,31.461569,12,0,,1
182567703,牛欢天原味火锅,4.1,涪城区永昌路52号,0816-6933937,周一至周日 11:00-22:00,"[{'iconUrl': 'http://p0.meituan.net/codeman/551290739062eda37e52999e2315f50c1887.png', 'text': '提供wifi'}, {'iconUrl': 'http://p1.meituan.net/codeman/4b1c5696fe5bf2c4d23fb01659b3e68b1960.png', 'text': '停车位'}]",False,104.652896,31.455681,50,0,,1
41465166,7恪cake（御营坝店）,5,涪城区绵娟路4号（小浮桥派出所）,0816-2277557/15196267670,周一至周日 09:00-21:00  2020-01-27至2020-01-29 休息,"[{'iconUrl': 'http://p0.meituan.net/codeman/551290739062eda37e52999e2315f50c1887.png', 'text': '提供wifi'}]",True,104.741542,31.451719,54,0,,1
190879912,攒劲焖烤（阳光清华商业街店）,5,涪城区园艺街19号东辰阳光清华A区商业11区1层12、13号,13458066626/19949502196,周一至周日 17:30-23:30  2020-01-21至2020-02-03 休息,"[{'iconUrl': 'http://p0.meituan.net/codeman/551290739062eda37e52999e2315f50c1887.png', 'text': '提供wifi'}, {'iconUrl': 'http://p1.meituan.net/codeman/4b1c5696fe5bf2c4d23fb01659b3e68b1960.png', 'text': '停车位'}]",True,104.701777,31.48167,52,0,,1
119010666,诺筵·汤品,5,涪城区园艺山华润凌雲府北门前行100米,0816-2221828,周一至周日 10:00-14:00 16:30-21:30,[],False,104.718715,31.483912,119,0,,1
194704748,青馋口小份烤鱼.,3.9,涪城区三江大道万达广场18-1-53号,15681910017,周一至周日 10:00-21:30,[],True,104.785024,31.411515,30,0,,1
1990534689,未之源烤全羊（御营坝店）,0,涪城区滨河南路中段,17783832164/15082829434,周一至周日 08:00-24:00,[],False,104.708601,31.44815,78,0,,1
185444520,有拈头成都市井火锅（天骄摩尔店）,4.3,涪城区兴盛街跃进路131号,0816-6922276/17716848268,周一至周日 11:00-23:30,"[{'iconUrl': 'http://p0.meituan.net/codeman/551290739062eda37e52999e2315f50c1887.png', 'text': '提供wifi'}]",False,104.740375,31.475551,54,0,,1
1664609829,至臻味音乐火锅烤肉,4.3,涪城区普明北路东段680号（明珠幼儿园东侧30米）,18148008555,周一至周日 10:00-22:00  2020-01-23至2020-01-28 休息,"[{'iconUrl': 'http://p0.meituan.net/codeman/551290739062eda37e52999e2315f50c1887.png', 'text': '提供wifi'}, {'iconUrl': 'http://p1.meituan.net/codeman/4b1c5696fe5bf2c4d23fb01659b3e68b1960.png', 'text': '停车位'}]",True,104.673464,31.47459,0,0,,1
158439649,小郡肝串串香（塘汛南区花园店）,5,涪城区文武西路,18780591935,,[],False,104.760159,31.408018,44,0,,1
1541620760,美好的时光中餐厅,4.1,涪城区花园路3号,0816-2836999/0816-2358599/18380588697,周一至周日 07:30-09:00 11:00-14:00 16:00-22:00,[],False,104.718947,31.455588,31,0,,1
188029025,大城小兔主题干锅（银河城店）,4.3,游仙区东津路15号,0816-2348988,周一至周日 10:30-21:00  2020-01-21至2020-02-03 休息,[],True,104.770289,31.466258,46,0,,1
1160284984,花海鱼府,5,涪城区永兴镇狮子山村永安路统建房2-3组71号,0816-8706006,周一至周日 10:00-22:00  2020-03-09至2020-03-12 休息,[],True,104.628936,31.465306,50,0,,1
1101624638,芙蓉树下.就是成都冒菜（万达广场店）,4.4,涪城区花园路9号,0816-2198285,周一至周日 10:30-21:30,"[{'iconUrl': 'http://p0.meituan.net/codeman/551290739062eda37e52999e2315f50c1887.png', 'text': '提供wifi'}]",True,104.721172,31.453331,22,0,,1
912553965,牛牛新派炭火鲜牛肉酒场.把把烧,4.1,涪城区绵兴中路216号,13458439813,周一至周日 14:00-24:00,[],False,104.649799,31.458749,43,0,,1
156768334,小郡肝串串香（高新区中沅店）,3.4,涪城区双碑东街中沅广场1楼（满江红火锅楼下）,0816-2688861,周一至周日 11:00-13:30 16:30-23:30,"[{'iconUrl': 'http://p0.meituan.net/codeman/551290739062eda37e52999e2315f50c1887.png', 'text': '提供wifi'}, {'iconUrl': 'http://p1.meituan.net/codeman/4b1c5696fe5bf2c4d23fb01659b3e68b1960.png', 'text': '停车位'}]",False,104.695398,31.462642,62,0,,1
175148918,地古牛牛肉养生汤锅（九州又一城店）,4.2,涪城区双碑中街九州又一城一期40号,0816-6939818,周一至周日 11:30-14:00 17:30-21:30  2020-01-24至2020-01-27 休息,"[{'iconUrl': 'http://p0.meituan.net/codeman/551290739062eda37e52999e2315f50c1887.png', 'text': '提供wifi'}, {'iconUrl': 'http://p1.meituan.net/codeman/4b1c5696fe5bf2c4d23fb01659b3e68b1960.png', 'text': '停车位'}]",False,104.687403,31.461937,50,0,,1
97422301,鲜味轩斑鱼庄,4,涪城区南河索桥旁南郡公寓,0816-2210168,周一至周日 09:00-21:00,[],True,104.76017,31.45014,57,0,,1
188582850,李小肠西昌特色网烧,5,涪城区西山东路43号（东方华尔街对面）,0816-2733316,周一至周日 15:30-03:30  2020-02-10至2020-02-16 休息,"[{'iconUrl': 'http://p0.meituan.net/codeman/551290739062eda37e52999e2315f50c1887.png', 'text': '提供wifi'}, {'iconUrl': 'http://p1.meituan.net/codeman/4b1c5696fe5bf2c4d23fb01659b3e68b1960.png', 'text': '停车位'}]",True,104.737412,31.478723,48,0,,1
160472145,来一烫老火锅,5,游仙区游仙东路55号芙蓉金城1栋2层1号,0816-2278988,周一至周日 11:00-22:30,"[{'iconUrl': 'http://p0.meituan.net/codeman/551290739062eda37e52999e2315f50c1887.png', 'text': '提供wifi'}]",True,104.774721,31.496618,43,0,,1
40368220,天天烧烤庄龙虾馆,4.1,涪城区跃进东街7号（近跃进东街，凤凰城）,15528505785,周一至周日 17:00-04:00,[],True,104.74837,31.47216,133,0,,1
poiId,name,avgScore,address,phone,openTime,extraInfos,hasFoodSafeInfo,longitude,latitude,avgPrice,brandId,brandName,showStatus
1966487493,红满天火锅,3.8,游仙区仙桃街游仙东路67号,13693638783,周一至周日 10:00-22:00,[],False,104.776888,31.502798,60,0,,1
162919860,乡坝头老火锅（御中路店）,4,涪城区御中路14号（长兴生活超市隔壁）,0816-2387088/18161007666,周一至周日 11:00-23:00,[],False,104.730573,31.447761,40,0,,1
1687358263,重庆临江门·夏二火锅（万达店）,4,涪城区滨河北路中段,0816-2890208/18011616506,周一至周日 10:00-22:00  2020-01-24至2020-01-26 休息,[],True,104.717585,31.450204,42,0,,1
72956106,王子大酒店（餐厅部）,4.7,涪城区临园路西段25号（火车站旁）,0816-6359099/6358999,周一至周日 11:30-20:00,"[{'iconUrl': 'http://p0.meituan.net/codeman/551290739062eda37e52999e2315f50c1887.png', 'text': '提供wifi'}, {'iconUrl': 'http://p1.meituan.net/codeman/4b1c5696fe5bf2c4d23fb01659b3e68b1960.png', 'text': '停车位'}]",True,104.71875,31.457101,158,0,,1
1608561406,烤匠特色锅盖烤肉（五里堆店）,3.5,游仙区五里堆南路16-112、16-113,17709007605/13990199357,周一至周日 10:00-14:00 16:00-23:00  2020-01-22至2020-01-31 休息,"[{'iconUrl': 'http://p0.meituan.net/codeman/551290739062eda37e52999e2315f50c1887.png', 'text': '提供wifi'}, {'iconUrl': 'http://p1.meituan.net/codeman/4b1c5696fe5bf2c4d23fb01659b3e68b1960.png', 'text': '停车位'}]",False,104.766061,31.478611,45,0,,1
164970949,小鼓屋咖啡吧（西科大店）,5,涪城区科大路396号附13号（百步穿杨射箭俱乐部斜对面）,18990189058,周一至周日 11:00-24:00  2020-01-11至2020-02-10 休息,"[{'iconUrl': 'http://p0.meituan.net/codeman/551290739062eda37e52999e2315f50c1887.png', 'text': '提供wifi'}, {'iconUrl': 'http://p1.meituan.net/codeman/4b1c5696fe5bf2c4d23fb01659b3e68b1960.png', 'text': '停车位'}]",True,104.700483,31.541498,29,0,,1
755814974,王老腰网烤（南河店）,5,涪城区四川省绵阳市涪城区文昌街5-6号,15228310653,周一至周日 17:00-23:00,[],False,104.757943,31.450097,63,0,,1
89897677,鲈鱼和啤酒（高水店）,4.3,涪城区工区街道高水南街22之7-10号,0816-2253459,周一至周日 09:00-24:00  2020-01-24至2020-01-26 休息,"[{'iconUrl': 'http://p0.meituan.net/codeman/551290739062eda37e52999e2315f50c1887.png', 'text': '提供wifi'}]",True,104.74081,31.489611,70,0,,1
192745543,北焰炭火烤肉,4.6,游仙区游仙区沈家坝北街3-74号,18990194211,周一至周日 11:00-23:00,"[{'iconUrl': 'http://p0.meituan.net/codeman/551290739062eda37e52999e2315f50c1887.png', 'text': '提供wifi'}]",False,104.777849,31.464714,51,0,,1
195822098,九村烤脑花烧烤,3.5,涪城区跃进路50号,0816-2669900,周一至周日 17:00-03:00,[],False,104.741618,31.475476,60,0,,1
194410892,冰凌时代（西雅图店）,4,涪城区火炬南路,15196341217,周一至周日 10:00-22:00,"[{'iconUrl': 'http://p0.meituan.net/codeman/551290739062eda37e52999e2315f50c1887.png', 'text': '提供wifi'}]",True,104.683984,31.462693,9,0,,1
193967990,牛小壮,4.1,涪城区园艺东街9号,0816-2551133,周一至周日 10:00-22:00,[],True,104.699792,31.482303,60,0,,1
193618184,沱江鱼府（园艺山店）,3.3,涪城区上马西街65号,0816-6223277,周一至周日 10:00-22:00  2020-01-24至2020-01-26 休息,[],True,104.698501,31.489403,67,0,,1
518588117,在路上炝锅鱼（1958店）,5,涪城区跃进路50号,18681269907,周一至周日 10:30-02:00,[],True,104.741278,31.474267,35,0,,1
193135291,拾贰居酒屋（万达店）,4.3,涪城区金菊街花园路9号,18380692203,周一至周日 10:30-21:30  2020-01-23 10:30-15:00 2020-01-24至2020-01-27 休息,"[{'iconUrl': 'http://p0.meituan.net/codeman/551290739062eda37e52999e2315f50c1887.png', 'text': '提供wifi'}]",True,104.721384,31.454544,53,0,,1
192906344,正渝70年代老火锅（1958店）,4.3,涪城区滨江路水韵滨江,17736838376,周一至周日 10:30-24:00,[],False,104.745855,31.477728,64,0,,1
192627359,兵之王（CBD万达店）,4.7,涪城区205省道,18681652377,周一至周日 09:30-22:00  2020-01-24 休息,[],True,104.784444,31.411073,12,0,,1
738170480,一品江湖（东原长岛店）,3,游仙区东原路,0816-5016200,周一至周日 10:00-22:00,[],False,104.753037,31.480055,50,0,,1
188476383,九福牛养生汤锅,3,涪城区滨河南路中段丽景花园二期A-2号,0816-2253367,周一至周日 09:30-21:00,[],False,104.714893,31.450345,60,0,,1
186945914,彝味印象火盆烧烤园艺山店（园艺山店）,4.1,涪城区八角南路1007号2栋6单元1楼,15908216921/18197533323,周一至周日 16:00-24:00  2020-01-23至2020-01-25 休息,"[{'iconUrl': 'http://p0.meituan.net/codeman/551290739062eda37e52999e2315f50c1887.png', 'text': '提供wifi'}, {'iconUrl': 'http://p1.meituan.net/codeman/4b1c5696fe5bf2c4d23fb01659b3e68b1960.png', 'text': '停车位'}]",True,104.683695,31.482577,53,0,,1
189589179,鹿角巷（百味巷店）,3.7,涪城区通安巷6号,0816-2107221,周一至周日 11:00-21:30,"[{'iconUrl': 'http://p0.meituan.net/codeman/551290739062eda37e52999e2315f50c1887.png', 'text': '提供wifi'}]",True,104.740925,31.46274,15,0,,1
1268206535,里外里吊炉海鲜焖烤,3.5,涪城区绵阳科创区元通南路14号温莎国际社区10幢1楼4号、5号、6号,15882899118,周一至周日 17:00-01:00  2020-01-22至2020-01-31 休息,[],True,104.702069,31.474467,62,0,,1
814241847,泥巴小院市井火锅（五一广场旗舰店）,4.5,涪城区平政一巷跃进北路20号,0816-2398283,周一至周日 11:00-23:00,[],False,104.742863,31.48127,40,0,,1
158360988,川少爷鲜货串串,4.7,涪城区永兴镇好吃街,15182329897/18161026777,周一至周日 10:30-13:00 16:30-22:30,"[{'iconUrl': 'http://p0.meituan.net/codeman/551290739062eda37e52999e2315f50c1887.png', 'text': '提供wifi'}]",True,104.627161,31.462455,27,0,,1
1448426327,新北京烤鸭（圣水店）,0,涪城区圣水综合市场附9号,15984642951,周一至周日 10:00-20:00,[],True,104.736832,31.50333,43,0,,1
1399256841,晏素咖啡（三光街店）,3.5,涪城区三光街19号（警钟街小学后门童依小镇旁）,17390119606,周一至周日 11:00-20:30,"[{'iconUrl': 'http://p0.meituan.net/codeman/551290739062eda37e52999e2315f50c1887.png', 'text': '提供wifi'}, {'iconUrl': 'http://p1.meituan.net/codeman/4b1c5696fe5bf2c4d23fb01659b3e68b1960.png', 'text': '停车位'}]",True,104.754536,31.459969,15,0,,1
1210186140,张麻子鱼府（绵阳直营店）,3.6,涪城区南湖街253-7号（南湖汽车站对面）,0816-2221352,周一至周日 11:00-22:30  2020-01-24至2020-01-25 休息,[],False,104.77306,31.428582,40,0,,1
996521551,巴蜀崽火锅（三台店）,4.7,三台县北坝镇米兰阳光2号楼3号,0816-5555681,周一至周日 10:00-23:00  2020-01-24至2020-01-25 16:00-23:00,[],True,105.099919,31.094503,48,0,,1
950940748,渔小满市井鱼火锅（西雅图店）,3.5,涪城区火炬东街,15884476788,周一至周日 09:30-22:30,[],False,104.682244,31.462785,40,0,,1
192708991,浪漫雪,3.5,涪城区兴达街3号,15196768650,周一至周日 09:00-22:00,[],True,104.752006,31.461558,15,0,,1
192716672,渔好食养生乌鱼汤锅,3.5,涪城区健安街10号,13699608311/15182466669,周一至周日 10:00-22:00,[],False,104.751636,31.450208,50,0,,1
662738143,玖临简阳羊肉汤锅,4.3,涪城区涪城区绵阳市园艺小学,0816-2588006/15281131027,周一至周日 10:00-14:00 17:00-23:30  2020-01-21至2020-02-03 休息,[],False,104.708516,31.475085,50,0,,1
193285295,炙景台烧肉居酒居（万达店）,4.9,涪城区涪城金街花园路9号万达步行街（万达广场3号门旁）,13088003480,周一至周日 11:00-23:00  2020-01-24 休息 2020-01-25至2020-01-30 11:00-22:00,"[{'iconUrl': 'http://p0.meituan.net/codeman/551290739062eda37e52999e2315f50c1887.png', 'text': '提供wifi'}]",True,104.720864,31.453751,73,0,,1
194933236,一更火锅（干锅）,3.5,涪城区跃进路北段109号,13350991462,周一至周日 10:00-22:00  2020-01-27至2020-02-08 休息,[],True,104.736829,31.501062,50,0,,1
194911921,大浪炭烤鲜牛肉（阳光里店）,4.3,涪城区红桥路9-8号金海阳光里沿街商铺,18140357618,周一至周日 16:00-24:00  2020-01-20至2020-01-31 休息,"[{'iconUrl': 'http://p0.meituan.net/codeman/551290739062eda37e52999e2315f50c1887.png', 'text': '提供wifi'}, {'iconUrl': 'http://p1.meituan.net/codeman/4b1c5696fe5bf2c4d23fb01659b3e68b1960.png', 'text': '停车位'}]",True,104.775223,31.437428,58,0,,1
189584557,铜雀楼涮羊肉火锅,3.8,涪城区板桥街,13564103323,周一至周日 11:00-23:00  2020-01-24至2020-01-25 休息,[],False,104.777821,31.426978,59,0,,1
194311786,凯门盛宴烤肉,4.1,涪城区飞云中街（樊华似锦2楼6号）,13419106333,周一至周日 10:00-22:00  2020-01-21至2020-01-31 休息,[],False,104.699519,31.450445,45,0,,1
186387740,意风小镇（CBD万达店）,4.7,涪城区绵州大道中段万达广场室内步行街3楼,18628867646,周一至周日 11:00-21:00,[],True,104.784858,31.411809,53,0,,1
92781521,李子坝梁山鸡（花园店）,4.9,涪城区滨河北路中段桂圆雅居39号,0816-2727997,周一至周日 09:30-13:30 16:30-21:30,[],False,104.71691,31.4501,48,0,,1
182069868,走马酸菜鱼（凯德店）,3.6,涪城区临园路东段74号（凯德广场1期5楼）,0816-5555665,周一至周日 10:00-22:00  2020-01-24至2020-01-25 休息,[],True,104.74152,31.463818,45,0,,1
194709752,不晓得把把烧,4,梓潼县顺河路182号-186号,0816-8219909,周一至周日 17:00-02:00,[],True,105.156319,31.634746,0,0,,1
190424231,大熊抄手,3.7,游仙区东津路海悦银河城3层3023号商铺,0816-2139418,周一至周日 09:30-21:00  2020-01-24 休息 2020-01-25至2020-01-26 10:00-20:00,[],True,104.770957,31.465837,18,0,,1
160250392,盐帮虾将,4.2,游仙区一环路东段178号（芙蓉汉城二期后边33-11号）,13198676767,周一至周日 09:30-03:00,"[{'iconUrl': 'http://p0.meituan.net/codeman/551290739062eda37e52999e2315f50c1887.png', 'text': '提供wifi'}]",False,104.773215,31.475888,52,0,,1
169393591,匠岳·王宝器麻椒鱼（绵阳店）,4,涪城区绵州大道229号金楠天街小区正大门旁,0816-2199289/13618116366,周一至周日 11:00-23:00,"[{'iconUrl': 'http://p0.meituan.net/codeman/551290739062eda37e52999e2315f50c1887.png', 'text': '提供wifi'}, {'iconUrl': 'http://p1.meituan.net/codeman/4b1c5696fe5bf2c4d23fb01659b3e68b1960.png', 'text': '停车位'}]",True,104.795003,31.400466,63,0,,1
986088531,定位老火锅（普明店）,4,涪城区绵兴中路,0816-2860077/19130717716,周一至周日 11:00-22:30  2020-01-24至2020-01-26 休息,[],False,104.658508,31.467288,45,0,,1
165887168,一把骨（万达店）,3.4,涪城区花园南街万达2号楼3楼麦当劳甜品站隔壁,0816-2300969/18781693689,周一至周日 10:00-21:30,[],True,104.720594,31.452529,60,1236555,一把骨,1
962364,森林雨火锅（沈家坝店）,4.3,游仙区东津路13号（公路大厦1楼）,0816-2273888,周一至周日 10:00-24:00,"[{'iconUrl': 'http://p1.meituan.net/codeman/4b1c5696fe5bf2c4d23fb01659b3e68b1960.png', 'text': '停车位'}]",True,104.768649,31.466937,63,899427,绵阳森林雨鸭肠王,1
164384371,肆季,4.2,涪城区长虹大道南段172号,0816-2919228,周一至周日 11:00-21:00  2020-01-24至2020-01-26 休息,"[{'iconUrl': 'http://p0.meituan.net/codeman/551290739062eda37e52999e2315f50c1887.png', 'text': '提供wifi'}, {'iconUrl': 'http://p1.meituan.net/codeman/4b1c5696fe5bf2c4d23fb01659b3e68b1960.png', 'text': '停车位'}]",True,104.757046,31.439271,88,0,,1
1261437530,溪塘甲鱼活鲜馆,4,涪城区园艺街139号奥林春天1期（原售楼部、喜来公社对面）,0816-2277122/18113463359,周一至周日 10:00-21:00,[],False,104.707876,31.489906,80,0,,1
195302476,爱琪烘焙,5,涪城区花园路9号万达广场SOHO二单元20楼07号,15378466759/18990160750,周一至周日 08:00-20:00,"[{'iconUrl': 'http://p0.meituan.net/codeman/551290739062eda37e52999e2315f50c1887.png', 'text': '提供wifi'}]",True,104.719526,31.453851,20,0,,1
157716332,杨氏纸包鱼,5,涪城区涪清义镇青羊西街19号,18281413078/18682530109,周一至周日 09:00-21:00,"[{'iconUrl': 'http://p0.meituan.net/codeman/551290739062eda37e52999e2315f50c1887.png', 'text': '提供wifi'}]",True,104.699901,31.540945,40,0,,1
194709272,LESON蛋糕,3.5,涪城区飞云大道21号,15808169685,周一至周日 10:00-22:00  2020-01-23至2020-01-31 休息,[],True,104.700014,31.450301,70,0,,1
1377873670,罗胖胖荔枝味老火锅（万达店）,5,涪城区花园南街61-9号,0816-2748899,周一至周日 10:00-13:00 16:00-24:00  2020-01-24至2020-01-26 休息,[],False,104.722889,31.455545,48,0,,1
194308809,蜀味火锅,4.2,游仙区游仙路55-9号,0816-2272688/15881615521,周一至周日 10:00-22:00  2020-01-24 休息,[],True,104.77287,31.490319,45,0,,1
153302431,重庆叙知香美蛙鱼头·火锅,5,涪城区跃进路北段20号嘉禾佳园D,0816-2588799,周一至周日 10:30-14:00 16:30-22:00,"[{'iconUrl': 'http://p0.meituan.net/codeman/551290739062eda37e52999e2315f50c1887.png', 'text': '提供wifi'}]",True,104.743649,31.480681,53,0,,1
1529598087,红花树重庆老火锅（（石桥铺店））,3.5,涪城区飞云北路飞云大道东段18号,18781122683,周一至周日 10:30-23:30,[],False,104.699394,31.451609,41,0,,1
193238240,鱼游记鲜鱼火锅,3.5,涪城区沿江西街桃园街192号,13778156097,周一至周日 10:00-23:30,"[{'iconUrl': 'http://p0.meituan.net/codeman/551290739062eda37e52999e2315f50c1887.png', 'text': '提供wifi'}]",False,104.734082,31.460872,40,0,,1
159247296,何妈冒菜（高新小颜店）,4.1,涪城区绵兴东路57号（九洲上尚城3号门右侧）,0816-2293893/17381170922,周一至周日 10:30-21:30  2020-01-31至2020-02-08 休息,"[{'iconUrl': 'http://p0.meituan.net/codeman/551290739062eda37e52999e2315f50c1887.png', 'text': '提供wifi'}, {'iconUrl': 'http://p1.meituan.net/codeman/4b1c5696fe5bf2c4d23fb01659b3e68b1960.png', 'text': '停车位'}]",True,104.692199,31.461998,20,0,,1
192555251,盐帮兔霸王,5,涪城区体运村路8号,18009095678,周一至周日 12:00-22:00  2020-01-25至2020-01-29 休息,"[{'iconUrl': 'http://p1.meituan.net/codeman/4b1c5696fe5bf2c4d23fb01659b3e68b1960.png', 'text': '停车位'}]",True,104.753493,31.449868,50,0,,1
631659467,蜀灶乡火锅（御营坝店）,0,涪城区四川省绵阳市涪城区石塘路25号2幢1层,13881118491,周一至周日 10:00-22:00,[],True,104.743549,31.449854,40,0,,1
192084218,大浪炭火鲜牛肉酒场（树高威尼斯店）,3.8,涪城区涪滨路树高·威尼斯城B区沿街商铺,0816-2288980,周一至周日 12:00-23:30  2020-03-02至2020-03-15 休息,"[{'iconUrl': 'http://p0.meituan.net/codeman/551290739062eda37e52999e2315f50c1887.png', 'text': '提供wifi'}, {'iconUrl': 'http://p1.meituan.net/codeman/4b1c5696fe5bf2c4d23fb01659b3e68b1960.png', 'text': '停车位'}]",True,104.782761,31.445468,49,0,,1
193900006,不可皮青年餐厅,5,涪城区云西街,0816-2885522/17709023126,周一至周日 10:00-20:30  2020-01-24至2020-01-30 休息,[],True,104.717991,31.451384,44,0,,1
194932273,尹筱肠绵州特色网烧,3.9,涪城区弘光路城市奥莱9号楼1层21号,0816-2343036/13350018838,周一至周日 16:00-01:00  2020-01-23至2020-01-25 休息,"[{'iconUrl': 'http://p0.meituan.net/codeman/551290739062eda37e52999e2315f50c1887.png', 'text': '提供wifi'}, {'iconUrl': 'http://p1.meituan.net/codeman/4b1c5696fe5bf2c4d23fb01659b3e68b1960.png', 'text': '停车位'}]",True,104.64989,31.45837,52,0,,1
194443908,蜀烩火锅串串（曼哈顿店）,4.8,涪城区御营东街38号,15681167152,周一至周日 11:30-22:00,[],False,104.743753,31.455361,35,0,,1
195018712,茶屿Tea Island（经开万达店）,4.7,涪城区三江大道万达广场18-1-66号,19981786672,周一至周日 10:00-22:00  2020-01-24至2020-01-26 休息,"[{'iconUrl': 'http://p0.meituan.net/codeman/551290739062eda37e52999e2315f50c1887.png', 'text': '提供wifi'}]",True,104.785359,31.412453,13,0,,1
2854942,川乡园（太白广场店）,4.6,江油市寿山路与纪念碑街中段交口南40米（江油太白广场地税局旁）,0816-3270698/6512338,周一至周日 09:00-14:00 16:30-21:00,"[{'iconUrl': 'http://p1.meituan.net/codeman/4b1c5696fe5bf2c4d23fb01659b3e68b1960.png', 'text': '停车位'}]",True,104.736077,31.772186,41,0,,1
195284429,知味特色西昌碳火网烤（东原店）,3.5,游仙区东原路,13708117953,周一至周日 17:00-24:00,[],False,104.753078,31.479278,50,0,,1
527948262,弘大烤肉,5,涪城区石桌子街 （经开万达4号门 对面）,13628116846,周一至周日 11:00-14:30 17:00-22:30,[],False,104.78496,31.411212,61,0,,1
548097216,思哇哒美蛙鱼头（1958店）,5,涪城区跃进路52号1958-2期,0816-8755598/18780378880,周一至周日 11:00-23:00  2020-01-26至2020-01-30 休息,"[{'iconUrl': 'http://p0.meituan.net/codeman/551290739062eda37e52999e2315f50c1887.png', 'text': '提供wifi'}, {'iconUrl': 'http://p1.meituan.net/codeman/4b1c5696fe5bf2c4d23fb01659b3e68b1960.png', 'text': '停车位'}]",True,104.744596,31.476163,60,0,,1
547290817,気楽亭日本料理（气乐亭园艺店）,4.2,涪城区园艺东街21号天和上品底商,0816-2280528/19113826895,周一至周日 11:00-14:00 16:00-22:00,"[{'iconUrl': 'http://p0.meituan.net/codeman/551290739062eda37e52999e2315f50c1887.png', 'text': '提供wifi'}, {'iconUrl': 'http://p1.meituan.net/codeman/4b1c5696fe5bf2c4d23fb01659b3e68b1960.png', 'text': '停车位'}]",False,104.700169,31.47928,70,0,,1
848527826,红堂老派火锅（CBD万达店）,5,涪城区石桌子街,13558999908/15181666585,周一至周日 11:30-22:00,"[{'iconUrl': 'http://p0.meituan.net/codeman/551290739062eda37e52999e2315f50c1887.png', 'text': '提供wifi'}, {'iconUrl': 'http://p1.meituan.net/codeman/4b1c5696fe5bf2c4d23fb01659b3e68b1960.png', 'text': '停车位'}]",False,104.785623,31.41197,59,0,,1
1955877877,江湖一盏灯（上马新村店）,3.5,涪城区上马南街48号3栋1号,0816-2305533/18227058137,周一至周日 11:00-22:00  2020-01-22至2020-01-26 休息,[],True,104.69955,31.48711,50,0,,1
160799990,queenimageq皇后印象,4.1,梓潼县文昌镇崇文街西段德诚时代广场（四川省绵阳市梓潼县文昌镇崇文街西段德诚时代广场）,17378677055/0816-8267700,周一至周日 07:30-21:00,[],True,105.160905,31.635174,15,0,,1
632020447,杏羽燕窝,4,涪城区剑南路西段乐荟城2楼,0816-2552565,周一至周日 09:30-21:00,"[{'iconUrl': 'http://p0.meituan.net/codeman/551290739062eda37e52999e2315f50c1887.png', 'text': '提供wifi'}, {'iconUrl': 'http://p1.meituan.net/codeman/4b1c5696fe5bf2c4d23fb01659b3e68b1960.png', 'text': '停车位'}]",True,104.706176,31.484385,61,0,,1
1834277396,醉·喜辣老派火锅（铂金时代店）,4.2,涪城区普明街道普明中路116号铂金时代北门2楼,0816-2129399/15008161718,周一至周日 10:00-23:00,"[{'iconUrl': 'http://p0.meituan.net/codeman/551290739062eda37e52999e2315f50c1887.png', 'text': '提供wifi'}]",False,104.678966,31.472013,44,0,,1
1706914309,四季鲜火锅兔,3.5,游仙区沈家坝北街沈家坝上街5-1号,0816-2919790,周一至周日 10:00-22:00,[],False,104.774185,31.467196,58,0,,1
763394122,食之意酸辣粉（万达店）,4.9,涪城区涪城金街花园路9号,19981141773,周一至周日 10:00-20:30,"[{'iconUrl': 'http://p0.meituan.net/codeman/551290739062eda37e52999e2315f50c1887.png', 'text': '提供wifi'}]",True,104.721078,31.453854,16,0,,1
1603269146,罗一手奶汤面（绵阳总店）,4.3,涪城区成绵路142号,0816-2508500,周一至周日 08:00-05:00,"[{'iconUrl': 'http://p0.meituan.net/codeman/551290739062eda37e52999e2315f50c1887.png', 'text': '提供wifi'}]",True,104.749889,31.464152,21,0,,1
1394002546,串大侠火锅串串,4.4,涪城区健安街113号,17340499555,周一至周日 10:00-02:00  2020-01-23至2020-01-30 休息,"[{'iconUrl': 'http://p0.meituan.net/codeman/551290739062eda37e52999e2315f50c1887.png', 'text': '提供wifi'}]",True,104.751882,31.450594,50,0,,1
51156579,康龙美味,3.5,三台县西胜街西平车站进站十字路口,15882824076/15884620395,周一至周日 09:00-21:00,"[{'iconUrl': 'http://p0.meituan.net/codeman/551290739062eda37e52999e2315f50c1887.png', 'text': '提供wifi'}]",False,104.858926,31.019381,0,0,,1
860847421,自在解焖儿焖烤主题餐厅（科创园店）,4,涪城区玉泉北路华润凌云府8-1-7,0816-2377011,周一至周日 17:00-24:00  2020-01-24至2020-01-31 休息,[],True,104.715707,31.48402,48,0,,1
poiId,name,avgScore,address,phone,openTime,extraInfos,hasFoodSafeInfo,longitude,latitude,avgPrice,brandId,brandName,showStatus
1343101950,三胖生态鱼庄,0,涪城区机场西路130号,13990150166,周一至周日 10:00-22:00,"[{'iconUrl': 'http://p0.meituan.net/codeman/551290739062eda37e52999e2315f50c1887.png', 'text': '提供wifi'}, {'iconUrl': 'http://p1.meituan.net/codeman/4b1c5696fe5bf2c4d23fb01659b3e68b1960.png', 'text': '停车位'}]",True,104.75044,31.42969,0,0,,1
1202799518,焙焙熊烘焙馆（永兴二小店）,5,涪城区永顺路49号附1号,0816-6938391/18048607175,周一至周日 10:00-22:00  2020-01-21至2020-01-31 休息,[],True,104.64362,31.45497,45,0,,1
906552828,小牛王烤肉,0,江油市江油市青莲镇陇西街110号,15386613563,周一至周日 10:00-22:00,[],False,104.687219,31.671621,50,0,,1
961151634,六扇门小鲜串,5,涪城区青义路亿达超市隔壁,15198081150,周一至周日 10:30-22:00,[],False,104.70161,31.54071,26,0,,1
159581557,尚和途茶餐厅,4.3,涪城区跃进路九洲1958一期4-2-16,0816-2719588,周一至周日 全天,"[{'iconUrl': 'http://p0.meituan.net/codeman/551290739062eda37e52999e2315f50c1887.png', 'text': '提供wifi'}, {'iconUrl': 'http://p1.meituan.net/codeman/4b1c5696fe5bf2c4d23fb01659b3e68b1960.png', 'text': '停车位'}]",True,104.742875,31.47622,40,0,,1
157242813,旺巴蜀小郡肝火锅串串香（1958店）,4.7,涪城区跃进路1958一期八栋,0816-2391691,周一至周四 09:00-13:30 16:30-23:30  周五至周日 09:00-13:30 16:00-23:30  2020-01-24至2020-01-26 休息,[],False,104.743334,31.476222,58,0,,1
111316812,巴色鱼捞（1958店）,4.1,涪城区跃进路1958商业街（跃华路与滨江路交口向西50米路南、1958二期停车场入口旁）,0816-2332344,周一至周日 10:30-14:00 16:30-22:00  2020-01-24 休息,[],True,104.745546,31.476272,62,0,,1
158635268,石灰市李串串（梓潼店）,3.7,梓潼县文昌镇金牛大道中段403、405号,0816-8211979,周一至周日 09:00-22:00,"[{'iconUrl': 'http://p0.meituan.net/codeman/551290739062eda37e52999e2315f50c1887.png', 'text': '提供wifi'}, {'iconUrl': 'http://p1.meituan.net/codeman/4b1c5696fe5bf2c4d23fb01659b3e68b1960.png', 'text': '停车位'}]",True,105.167153,31.628561,37,0,,1
65709558,蓉一品（昌明西路店）,3,江油市中坝镇渝州路15-17号（汇丰花园10-12号门）,0816-3258222/13402353239,周一至周日 9:00-22:00,[],False,104.73965,31.76964,10,0,,1
157723281,龙森园火锅,3.9,涪城区塘汛南区花园万人居民点快乐购超市旁,0816-2666166/15181666396,春季、夏季、秋季 周一至周日 10:00-13:00 16:30-21:00,[],False,104.762262,31.409115,40,0,,1
192719826,曾哈儿卤鹅（南河店）,4.7,涪城区南河路30号,13398483261,周一至周日 08:30-20:00,[],True,104.760811,31.450905,25,0,,1
110484766,柒味餐饮（江油店）,3.5,江油市火车站东侧（中都超市旁，火车站出站口）,0816-3232588,周一至周日 09:00-14:00 17:00-21:00,"[{'iconUrl': 'http://p1.meituan.net/codeman/4b1c5696fe5bf2c4d23fb01659b3e68b1960.png', 'text': '停车位'}]",True,104.771427,31.783636,60,0,,1
192788796,高新壹号家宴小厨（布鲁斯店）,4.3,涪城区虹阳街11号,18161326311/0816-2349118,周一至周日 10:00-22:00  2020-01-24至2020-01-30 休息,[],False,104.66944,31.465252,40,0,,1
192984211,金阿姨贵阳小豆腐,4.2,涪城区通安巷6号,15823199518,周一至周日 17:00-22:00,"[{'iconUrl': 'http://p0.meituan.net/codeman/551290739062eda37e52999e2315f50c1887.png', 'text': '提供wifi'}]",False,104.740814,31.462638,47,0,,1
110824264,顺风肥牛,3.8,涪城区青年广场旁,0816-2286699,周一至周日 11:00-13:30 17:00-20:30  2020-01-25至2020-01-26 休息,[],True,104.765629,31.454749,83,0,,1
195306316,友酒友串小酒馆,3.5,游仙区东原长岛滨江中路2号25栋106,18881139933,周一至周日 17:00-01:00,[],True,104.752878,31.479674,50,0,,1
193251219,兔锅哥特色私家菜,3.5,涪城区双碑中街九洲又一城底商,15182471660,周一至周日 10:00-14:00 17:00-22:00,[],False,104.686361,31.463649,57,0,,1
162897476,寻味.铁板屋,4.5,涪城区六一堂路626号附98号,18981189595,周一至周日 10:00-21:30,[],True,104.765174,31.423207,16,0,,1
193287155,石香居石板烤肉,4.1,涪城区飞云大道东段樊华似锦四期商业街二楼,15881600291,周一至周日 17:00-22:00,"[{'iconUrl': 'http://p0.meituan.net/codeman/551290739062eda37e52999e2315f50c1887.png', 'text': '提供wifi'}]",True,104.699932,31.450308,46,0,,1
193568022,正新鸡排,3,安州区花荄镇文星大道北段158号欧奇摩尔53、54号铺,18989270817,周一至周日 09:30-21:30,[],True,104.561485,31.537429,15,0,,1
158942139,齐庆美蛙鱼头,4.3,游仙区一环路东段138号卧龙庭3幢1-1号,13088251236/0816-2382388,周一至周日 10:30-13:30 16:30-22:00  2020-01-24至2020-01-31 休息,[],True,104.768585,31.472755,57,0,,1
159693745,钢管厂小郡肝串串香,3,涪城区涪御营坝御园街58号,18161069944,周一至周日 全天,[],False,104.74068,31.452921,40,0,,1
1837300357,钟方模白家肥肠粉（新区店）,3.5,涪城区青义路龙溪街36号（原一号冰站）,15228332999,周一至周日 10:00-22:00,[],True,104.70382,31.54084,10,0,,1
193606993,鼎锅肴老火锅,4.4,涪城区清华西路,0816-2329299,周一至周日 10:00-22:00  2020-01-24至2020-01-25 休息,[],False,104.68423,31.53092,53,0,,1
163177823,轩货鱼捞,3.7,涪城区南湖街嘉来板桥小区（摩西学校旁，啤酒广场十字路）,0816-2299290,周一至周日 09:00-22:00,"[{'iconUrl': 'http://p0.meituan.net/codeman/551290739062eda37e52999e2315f50c1887.png', 'text': '提供wifi'}, {'iconUrl': 'http://p1.meituan.net/codeman/4b1c5696fe5bf2c4d23fb01659b3e68b1960.png', 'text': '停车位'}]",True,104.777881,31.430188,56,0,,1
1634569275,大成•醉串串（华润紫云府店）,3.5,涪城区绵阳科创区玉泉中路9号华润中央公园六期9幢2层18、19号,18280449660,周一至周日 11:00-23:00  2020-01-24至2020-01-26 休息,[],False,104.715952,31.484769,47,0,,1
169326111,东良至味甜品,4.5,涪城区经开区六一堂路626号附6号（重庆万州烤鱼旁）,15984636205,周一至周日 08:00-22:00,"[{'iconUrl': 'http://p0.meituan.net/codeman/551290739062eda37e52999e2315f50c1887.png', 'text': '提供wifi'}, {'iconUrl': 'http://p1.meituan.net/codeman/4b1c5696fe5bf2c4d23fb01659b3e68b1960.png', 'text': '停车位'}]",True,104.765603,31.425148,15,0,,1
50618491,绝味鸭脖（梓潼店）,4,梓潼县文昌路中段128号,18281573886,周一至周日 09:00-23:30 00:00-01:30,[],True,105.161864,31.636131,31,26888,绝味鸭脖,1
1743015266,谷燚大牛炭火烧肉（芙蓉汉城店）,5,游仙区一环路东段168号卧龙庭9栋10号1层,0816-2220045/18011600225,周一至周日 15:00-22:00,[],False,104.769509,31.472937,55,0,,1
169037484,鲜塘宴（文武西路店）,4.6,涪城区文武西路锦涂广告西200米,0816-2969688/2969588,周一至周日 11:00-21:00,"[{'iconUrl': 'http://p0.meituan.net/codeman/551290739062eda37e52999e2315f50c1887.png', 'text': '提供wifi'}, {'iconUrl': 'http://p1.meituan.net/codeman/4b1c5696fe5bf2c4d23fb01659b3e68b1960.png', 'text': '停车位'}]",False,104.761194,31.411372,47,0,,1
165833200,筷子米线（万达店）,4.1,涪城区花园南街35号周生福对面,0816-2741210,周一至周日 10:00-20:00,[],True,104.720712,31.455144,14,0,,1
1789522347,初拾一点甜,0,涪城区爱喜嘉年华3011号,15982951070,周一至周日 10:00-22:00,[],True,104.748353,31.459649,20,0,,1
164798656,地古牛牛肉养生汤锅,4.3,涪城区跃进路九洲1958二期商业街6-2-2,0816-2282799,周一至周五 11:00-14:00 17:30-21:30,[],False,104.744243,31.476255,61,0,,1
164440543,洞香村战国文化生态火锅,3.9,游仙区富乐后山紫阳村洞香村（白云洞旁边）,0816-2919779,周一至周日 11:00-22:00,[],True,104.791661,31.456061,80,0,,1
76469567,趣辣儿无烟火锅,4.3,江油市中坝镇诗仙路中段100号（原动力精品一号酒店院内，社保局旁）,0816-3322123,周一至周日 10:30-20:30,"[{'iconUrl': 'http://p0.meituan.net/codeman/551290739062eda37e52999e2315f50c1887.png', 'text': '提供wifi'}, {'iconUrl': 'http://p1.meituan.net/codeman/4b1c5696fe5bf2c4d23fb01659b3e68b1960.png', 'text': '停车位'}]",True,104.737427,31.777525,50,0,,1
93813976,王氏纸包鱼（川音店）,5,涪城区涪经开区六一堂路626附75号,18980139089,周一至周日 10:00-22:00  2020-01-24至2020-01-30 休息,"[{'iconUrl': 'http://p0.meituan.net/codeman/551290739062eda37e52999e2315f50c1887.png', 'text': '提供wifi'}]",True,104.765221,31.423727,30,0,,1
170613758,万度美蛙鱼头（经开店）,4,涪城区涪滨路城南新天地2号门,13881181657,周一至周日 11:00-23:00,[],False,104.782719,31.434817,40,0,,1
160580744,蛙三泡椒牛蛙（涪城万达店）,4.1,涪城区花园路9号涪城万达广场3楼,0816-2781779,周一至周日 09:00-21:30,[],True,104.71921,31.454549,60,0,,1
1953539129,红门老火锅（石桥铺店）,4.7,涪城区飞云北路与飞云中街6-19号上河鹂岛12b二楼,0816-2669968,周一至周日 11:00-23:00,[],True,104.697498,31.453552,40,0,,1
164286749,巫山纸上烤鱼（中环店）,3.1,涪城区中环时代购物广场中环电影城二楼,0816-2981922,周一至周日 09:30-22:00,[],True,104.751801,31.46155,51,0,,1
111101486,铁签门串串香,4.5,涪城区园艺山上马西街与上马南街十字路口旁,15892662927,周一至周日 09:00-14:00 16:00-23:00,[],False,104.699195,31.488817,28,0,,1
4146847,御鲜坊乌鱼养生汤锅·烤盘（园艺山店）,3.5,涪城区科创区玉泉中路奥林春天2期,0816-6331663,周一至周日 09:30-21:30,"[{'iconUrl': 'http://p0.meituan.net/codeman/551290739062eda37e52999e2315f50c1887.png', 'text': '提供wifi'}]",False,104.715674,31.485742,60,0,,1
157756423,仙海福地鱼莊,4.1,涪城区西山东路43-2号东方华尔街南门旁,0816-2387879/15892666282,周一至周日 09:00-22:00,[],False,104.736564,31.478792,35,0,,1
169040551,虾兵虾将（126店）,3.9,涪城区长虹大道南段176号（126创意文化园）,0816-2929381,周一至周日 11:00-14:00 16:30-01:00,[],True,104.757016,31.439754,99,0,,1
160587208,Ada's Patisserie高空法式甜品咖啡店,4.8,涪城区瀚威城市中心40楼16号,18161026180,周一至周日 13:30-19:00  2020-01-25至2020-02-02 12:30-18:30,"[{'iconUrl': 'http://p0.meituan.net/codeman/551290739062eda37e52999e2315f50c1887.png', 'text': '提供wifi'}]",True,104.751234,31.460089,42,0,,1
90951088,牛滋味鲜毛肚火锅（芙蓉汉城店）,5,游仙区一环路东段101号,0816-2298199,周一至周日 11:30-14:00 17:30-23:00  2020-01-23至2020-01-24 休息,[],True,104.768913,31.472906,63,0,,1
192608053,花田锦厨（凯德广场店）,4.5,涪城区凯德广场2期6楼梦田农场内,0816-2609060/15928480292,周一至周日 11:00-21:00,"[{'iconUrl': 'http://p0.meituan.net/codeman/551290739062eda37e52999e2315f50c1887.png', 'text': '提供wifi'}]",False,104.741669,31.463588,58,0,,1
101840367,品牛石锅拌饭,3.7,涪城区临园路东段74号凯德广场负一楼,13378151666,周一至周日 10:00-21:00  2020-01-24 休息,[],True,104.741353,31.464017,17,0,,1
161059077,贡茶,0,梓潼县滨河路37号（大东洋购物中心后身）,18981194682,周一至周日 10:00-20:00,[],True,105.163709,31.634927,9,0,,1
162874346,北榄树泰式火锅·花胶鲍鱼鸡,4.3,涪城区滨江路汇泽九洲1958三期（李不管把把烧楼上）,0816-2286866/17364935767,周一至周日 11:00-22:00,[],True,104.745676,31.476782,86,0,,1
190415261,湛江·蚝味王·专业烤蚝海鲜餐厅（高水店）,4.1,涪城区高水南街68号4栋1层11、12、13号,0816-2293567,周一至周日 16:00-01:00,"[{'iconUrl': 'http://p0.meituan.net/codeman/551290739062eda37e52999e2315f50c1887.png', 'text': '提供wifi'}, {'iconUrl': 'http://p1.meituan.net/codeman/4b1c5696fe5bf2c4d23fb01659b3e68b1960.png', 'text': '停车位'}]",True,104.732265,31.489042,54,0,,1
189501567,筷子花（奥莱金祥里店）,3.8,涪城区绵兴中路城市奥莱广场16号至20号,0816-2176788/13981137859,周一至周日 09:00-14:00 16:00-23:00,"[{'iconUrl': 'http://p0.meituan.net/codeman/551290739062eda37e52999e2315f50c1887.png', 'text': '提供wifi'}, {'iconUrl': 'http://p1.meituan.net/codeman/4b1c5696fe5bf2c4d23fb01659b3e68b1960.png', 'text': '停车位'}]",True,104.650452,31.459604,41,0,,1
163172669,时代虾王（通安巷店）,4.1,涪城区通安巷14号,18008162055,周一至周日 11:00-04:00,[],True,104.740915,31.461394,55,0,,1
187253235,藕然间,3.2,涪城区长虹大道中段33号,0816-2783558,周一至周日 11:00-22:00,[],True,104.737598,31.478901,54,0,,1
186310721,魔辣音乐餐厅,5,游仙区东津路海悦银河城四楼,18148005852,周一至周日 10:00-02:00  2020-01-24至2020-01-26 休息,"[{'iconUrl': 'http://p0.meituan.net/codeman/551290739062eda37e52999e2315f50c1887.png', 'text': '提供wifi'}, {'iconUrl': 'http://p1.meituan.net/codeman/4b1c5696fe5bf2c4d23fb01659b3e68b1960.png', 'text': '停车位'}]",True,104.770627,31.466141,49,0,,1
115185538,盈庭火锅,3.5,涪城区玉女路211号,0816-6389598,周一至周日 09:00-23:00,[],False,104.729677,31.500751,45,0,,1
163452042,花果醉,3.3,涪城区园艺街长兴星城门口,0816-2995969,周一至周日 09:30-13:30 17:00-21:30  2020-01-24至2020-01-26 休息,[],False,104.705795,31.489107,55,0,,1
184721594,羌滋香味牛肉养身汤锅,3.7,涪城区花园北街花园东街3号,0816-2666001/17508149302,周一至周日 11:00-22:30  2020-01-24至2020-01-25 休息,"[{'iconUrl': 'http://p0.meituan.net/codeman/551290739062eda37e52999e2315f50c1887.png', 'text': '提供wifi'}, {'iconUrl': 'http://p1.meituan.net/codeman/4b1c5696fe5bf2c4d23fb01659b3e68b1960.png', 'text': '停车位'}]",False,104.720386,31.45671,58,0,,1
184189575,碗叔,3.5,涪城区富乐路临园路东段72-1号新世界百货五楼,17313710313,周一至周日 10:30-20:30,"[{'iconUrl': 'http://p0.meituan.net/codeman/551290739062eda37e52999e2315f50c1887.png', 'text': '提供wifi'}]",True,104.742443,31.464061,20,0,,1
164785993,源香乌鱼府,5,涪城区跃进路1958步行街德奈福楼上,0816-2913168,周一至周日 10:00-21:00  2020-01-24至2020-01-26 休息,[],True,104.743221,31.475445,57,0,,1
179649941,有拈头成都市井火锅（万达店）,3.6,涪城区花园南街66号,0816-2226099,周一至周日 11:00-23:00  2020-01-24至2020-01-27 休息,[],False,104.723433,31.455176,54,0,,1
179105409,米亚果子烘焙,3.9,涪城区经开区文跃路50号（城南综合市场对面，皓轩中国电信旁）,0816-6969699,周一至周日 08:00-22:00  2020-01-24至2020-01-28 休息,"[{'iconUrl': 'http://p0.meituan.net/codeman/551290739062eda37e52999e2315f50c1887.png', 'text': '提供wifi'}]",True,104.759718,31.408443,10,0,,1
96860927,味绝美蛙鱼头（三台店）,4.7,三台县潼川镇东城尚都古今一家楼下,0816-5260511,周一至周日 09:00-14:00 16:30-22:00,"[{'iconUrl': 'http://p1.meituan.net/codeman/4b1c5696fe5bf2c4d23fb01659b3e68b1960.png', 'text': '停车位'}]",True,105.09829,31.08619,49,0,,1
110246032,迪尼兹定制烘焙（华润店）,5,涪城区玉泉中路华润凌云府10栋1楼,0816-6332363/13778073138,周一至周日 全天,[],True,104.716557,31.484738,15,0,,1
164981043,牛先生鲜牛肉养生汤锅,3,涪城区虹苑北路2-24号二楼（阳光西雅图底商）,0816-2912808,春季、夏季、秋季 周一至周日 11:00-22:00  冬季 周一至周日 11:00-21:30,"[{'iconUrl': 'http://p0.meituan.net/codeman/551290739062eda37e52999e2315f50c1887.png', 'text': '提供wifi'}, {'iconUrl': 'http://p1.meituan.net/codeman/4b1c5696fe5bf2c4d23fb01659b3e68b1960.png', 'text': '停车位'}]",False,104.682621,31.462792,56,0,,1
177559922,一五三韩式料理,4,涪城区滨河北路中段万达广场2号门1-4,18523580350,周一至周六 11:00-23:00  2020-01-27至2020-01-29 休息,[],False,104.719761,31.452841,37,0,,1
174859991,GALA音乐餐酒吧,5,涪城区虹云桥桃花岛商业街1号别墅,0816-2191777,周一至周日 17:00-23:30,"[{'iconUrl': 'http://p0.meituan.net/codeman/551290739062eda37e52999e2315f50c1887.png', 'text': '提供wifi'}]",True,104.781014,31.453541,65,0,,1
194471376,汉轩阁冰煮三鲜汤烤喷泉（老茶树店）,4.1,涪城区御安街滨河南路东段48-22号,0816-6933313,周一至周日 09:30-14:00 16:30-21:30  2020-03-04至2020-03-31 休息,[],True,104.737495,31.456594,50,0,,1
1524901692,辣度重庆盆盆蛙虾蟹馆（高水店）,3.5,涪城区滨江西路北段清青雅苑北侧50米,0816-8733538/15528542666,周一至周日 10:00-22:00,"[{'iconUrl': 'http://p0.meituan.net/codeman/551290739062eda37e52999e2315f50c1887.png', 'text': '提供wifi'}, {'iconUrl': 'http://p1.meituan.net/codeman/4b1c5696fe5bf2c4d23fb01659b3e68b1960.png', 'text': '停车位'}]",True,104.7443,31.49168,45,0,,1
195966693,蛙噻！美蛙鱼头,4.3,涪城区文昌街3-11号,0816-2288181,周一至周日 10:00-23:00,[],True,104.757944,31.450901,60,0,,1
189467446,耍酒馆（园艺山店）,5,涪城区玉泉南路9号奥林春天三期6-102号,0816-6333286,周一至周日 17:30-02:30  2020-03-03至2020-03-10 休息,"[{'iconUrl': 'http://p0.meituan.net/codeman/551290739062eda37e52999e2315f50c1887.png', 'text': '提供wifi'}]",True,104.706885,31.486512,62,0,,1
195107508,重庆无刺纸包鱼·藕王养生汤,4.3,涪城区红桥路南湖街138号,0816-8723669,周一至周日 10:00-22:00  2020-01-23至2020-01-28 休息,"[{'iconUrl': 'http://p0.meituan.net/codeman/551290739062eda37e52999e2315f50c1887.png', 'text': '提供wifi'}, {'iconUrl': 'http://p1.meituan.net/codeman/4b1c5696fe5bf2c4d23fb01659b3e68b1960.png', 'text': '停车位'}]",True,104.777629,31.430557,39,0,,1
80971114,何夕奶茶,3.5,涪城区珍好一条街科大路398-8号（近西南科技大学）,18190663400,周一至周日 11:00-23:00,"[{'iconUrl': 'http://p0.meituan.net/codeman/551290739062eda37e52999e2315f50c1887.png', 'text': '提供wifi'}]",False,104.699858,31.541469,20,0,,1
1965889315,厨大侠卤味火锅（布鲁斯店）,3.5,涪城区涪城区（虹阳街西）,0816-2199961,周一至周日 10:00-22:00,[],False,104.669504,31.462418,45,0,,1
poiId,name,avgScore,address,phone,openTime,extraInfos,hasFoodSafeInfo,longitude,latitude,avgPrice,brandId,brandName,showStatus
195539716,黄氏小海丁老烧烤（绵阳总店）,4.7,涪城区跃进路6号长虹国际城二期29幢2层52号,17713675634,周一至周日 17:00-03:00,"[{'iconUrl': 'http://p0.meituan.net/codeman/551290739062eda37e52999e2315f50c1887.png', 'text': '提供wifi'}, {'iconUrl': 'http://p1.meituan.net/codeman/4b1c5696fe5bf2c4d23fb01659b3e68b1960.png', 'text': '停车位'}]",True,104.74433,31.46871,37,0,,1
187209546,猫兒梁火锅,4.2,涪城区涪城区玉泉北路70号华润中央公园凌云府5-1-5号（艾尔家体始能旁边）,0816-2811077,周一至周日 12:30-22:00  2020-01-12至2020-01-31 休息,"[{'iconUrl': 'http://p0.meituan.net/codeman/551290739062eda37e52999e2315f50c1887.png', 'text': '提供wifi'}]",False,104.71716,31.48341,55,0,,1
195938106,王宝器麻椒鱼（华尔街店）,3.3,涪城区长虹大道中段33号,0816-2858668,周一至周日 10:00-22:00  2020-01-25至2020-01-26 休息,[],True,104.737828,31.479243,53,0,,1
186775064,重庆牛市口地摊麻辣烫（星河湾店）,3.6,涪城区滨江西路北段168号,0816-2829807,周一至周日 11:00-22:00  2020-01-24至2020-01-27 休息,"[{'iconUrl': 'http://p0.meituan.net/codeman/551290739062eda37e52999e2315f50c1887.png', 'text': '提供wifi'}, {'iconUrl': 'http://p1.meituan.net/codeman/4b1c5696fe5bf2c4d23fb01659b3e68b1960.png', 'text': '停车位'}]",False,104.737095,31.506148,40,0,,1
670505083,潮鸡库,0,江油市火炮街28-8,19113712850/18990106590,周一至周日 09:00-22:00,"[{'iconUrl': 'http://p0.meituan.net/codeman/551290739062eda37e52999e2315f50c1887.png', 'text': '提供wifi'}]",True,104.745155,31.775802,12,0,,1
719612227,京蜀壹甲火锅（御营坝店）,4.7,涪城区涪城区御安街18号黄金综合楼1栋1层1号,13096386070,周一至周日 15:00-01:00,"[{'iconUrl': 'http://p0.meituan.net/codeman/551290739062eda37e52999e2315f50c1887.png', 'text': '提供wifi'}]",True,104.737385,31.455779,40,0,,1
184581726,众乐然特色中餐厅,4,涪城区绵州大道中段CBD万达广场5-1-6/7,15983658099,周一至周日 10:00-21:00  2020-01-24至2020-01-30 休息,[],True,104.784706,31.412033,35,0,,1
820862729,怀旧老火锅（五里堆店）,4.3,游仙区四川省绵阳市游仙区五里堆农贸市场C-D门面8-10号24号,15182314110,周一至周日 10:00-14:00 16:00-23:30  2020-01-24至2020-01-27 休息,"[{'iconUrl': 'http://p0.meituan.net/codeman/551290739062eda37e52999e2315f50c1887.png', 'text': '提供wifi'}, {'iconUrl': 'http://p1.meituan.net/codeman/4b1c5696fe5bf2c4d23fb01659b3e68b1960.png', 'text': '停车位'}]",True,104.765016,31.478173,47,0,,1
88574187,其轩居老鸭汤,4.1,涪城区通安巷20号,15228799386,周一至周日 09:00-22:00,[],True,104.741195,31.461164,33,0,,1
179304475,聚联水乡生态农庄农家乐,3,安州区花荄镇花城果乡联丰村6组,0816-4651171,周一至周日 09:00-21:00,"[{'iconUrl': 'http://p1.meituan.net/codeman/4b1c5696fe5bf2c4d23fb01659b3e68b1960.png', 'text': '停车位'}]",True,104.570093,31.57256,50,0,,1
105248677,山城小火锅,3.2,涪城区涪顺河前街7号隆盛一品天下,0816-2221823,周一至周日 10:00-23:00  2020-01-23至2020-01-26 休息,[],True,104.757669,31.460737,59,0,,1
71017444,有家重庆老火锅,4.9,涪城区西山东路94号水韵滨江5栋2楼,0816-2880123,周一至周日 09:30-23:00  2020-01-24至2020-01-26 休息,"[{'iconUrl': 'http://p0.meituan.net/codeman/551290739062eda37e52999e2315f50c1887.png', 'text': '提供wifi'}]",True,104.747416,31.478025,55,0,,1
170632594,李文把把烧,4.1,涪城区顺河前街10号（猎人网咖东行20米）,13778075188/15397778753,周一至周日 17:30-03:00  2020-01-24 休息,"[{'iconUrl': 'http://p0.meituan.net/codeman/551290739062eda37e52999e2315f50c1887.png', 'text': '提供wifi'}]",True,104.757391,31.460864,64,0,,1
162896778,牛先生鲜牛肉养生汤锅,3.5,涪城区城南路顺德堂大药房三楼,0816-6285299,周一至周日 09:00-21:30,"[{'iconUrl': 'http://p0.meituan.net/codeman/551290739062eda37e52999e2315f50c1887.png', 'text': '提供wifi'}]",False,104.779076,31.440199,60,0,,1
159006157,聚仙楼汤锅干锅城,5,盐亭县云溪镇阳光水岸14幢2楼,15883643358,周一至周日 10:00-22:30,[],False,105.399853,31.207947,40,0,,1
164041687,草庐玖厨,3.9,涪城区绵阳民航飞行学院对面,0816-2726999/19982758124,周一至周日 09:00-14:00 17:30-21:30,[],False,104.747486,31.433918,83,0,,1
1899498973,三米宽老火锅（开元店）,3.5,游仙区芙蓉巷8-4号,0816-6277737,周一至周日 10:30-01:00 16:30-22:00,[],True,104.763125,31.465869,40,0,,1
1796266207,蕃茄述•好汤自然来（梓潼店）,4,梓潼县梓潼县兴发广场（三楼）,0816-8266882,周一至周日 10:00-22:00,[],False,105.165831,31.630425,50,0,,1
65786732,三之首糯香干锅（芙蓉汉城店）,4.2,游仙区一环路东段158号（芙蓉汉城7栋）,0816-2232828/13696265671,周一至周日 10:00-22:00  2020-01-21至2020-02-03 休息,[],True,104.769613,31.473719,48,0,,1
1667280452,客佳小碗菜火锅,0,涪城区三江国际丽城澜岸,15280980937/0816-2419966,周一至周日 10:00-22:00  2020-01-24至2020-01-28 休息,[],False,104.780807,31.428824,59,0,,1
1969692960,老号李小肠西昌特色火盆烧烤（树高威尼斯店）,5,涪城区涪滨路树高威尼斯,18215631251,周一至周日 17:00-24:00  2020-01-27至2020-02-02 休息,[],False,104.78207,31.445732,59,0,,1
1989883946,卤九庄鲜卤火锅,3.8,涪城区高水南街16-2号,18782690136/0816-8754923,周一至周日 10:00-22:00,[],False,104.742009,31.489661,41,0,,1
5649636,森林雨火锅食府（梓潼店）,3.3,梓潼县潼江路与文昌路交叉口上行60米,0816-8260918,周一至周日 09:30-13:30 16:00-21:30,"[{'iconUrl': 'http://p0.meituan.net/codeman/551290739062eda37e52999e2315f50c1887.png', 'text': '提供wifi'}, {'iconUrl': 'http://p1.meituan.net/codeman/4b1c5696fe5bf2c4d23fb01659b3e68b1960.png', 'text': '停车位'}]",True,105.161705,31.62514,43,666930,森林雨,1
1793670072,卤婆婆卤味火锅（铁牛广场店）,3,涪城区铁牛街铁牛广场芒果纯K旁边,15884629385,周一至周日 11:00-23:00  2020-01-24至2020-01-26 休息,[],False,104.753562,31.462744,43,0,,1
174927609,兰月老火锅,4,涪城区上马西街65号15栋4号,0816-2102819/15681198181,周一至周日 10:00-23:00,[],False,104.698891,31.488126,55,0,,1
177876216,798小院,3.8,涪城区跃进路北段跃进北路19号,0816-2222798,周一至周日 10:00-14:00 17:00-23:30,"[{'iconUrl': 'http://p0.meituan.net/codeman/551290739062eda37e52999e2315f50c1887.png', 'text': '提供wifi'}, {'iconUrl': 'http://p1.meituan.net/codeman/4b1c5696fe5bf2c4d23fb01659b3e68b1960.png', 'text': '停车位'}]",True,104.741449,31.47986,61,0,,1
1644478641,冬水田三和鱼美蛙,4.6,涪城区跃进路北段78号长虹世纪城5栋2层4-6号,0816-2373788,周一至周日 10:00-23:00  2020-01-25至2020-01-27 休息,"[{'iconUrl': 'http://p0.meituan.net/codeman/551290739062eda37e52999e2315f50c1887.png', 'text': '提供wifi'}, {'iconUrl': 'http://p1.meituan.net/codeman/4b1c5696fe5bf2c4d23fb01659b3e68b1960.png', 'text': '停车位'}]",False,104.741842,31.491217,50,0,,1
179584840,福杏家宴,4.4,游仙区游仙东路68号渔人码头,0816-2298966,周一至周日 10:00-22:00,[],True,104.779138,31.501322,55,0,,1
182132588,满江红（三江国际丽城）,4.3,涪城区涪滨路三江国际丽城,0816-6383088,周一至周日 11:00-22:00,[],True,104.784442,31.441607,61,0,,1
1557683801,罗胖胖荔枝味老火锅（西科大店）,4.5,涪城区青义路御龙砂锅旁,17760511218,周一至周日 09:30-13:30 16:30-22:00,[],False,104.701397,31.540978,45,0,,1
1653997441,鼎味美蛙鱼头火锅（园艺山旗舰店）,4.5,涪城区涪城区富临山庄东北,0816-2727356/18681655590,周一至周日 10:00-22:00,[],False,104.683646,31.482659,34,0,,1
182551287,明哥烧烤串串香,3,涪城区剑门路西段45-6号,17780169945,周一至周日 18:00-03:00,[],True,104.722268,31.461539,25,0,,1
186237622,塘门飞鱼美蛙鱼头馆（涪城万达店）,3.4,涪城区涪城金街花园路9号3楼,0816-6337758,周一至周日 11:00-21:30  2020-01-24 休息,[],True,104.720092,31.453456,67,0,,1
2255548,绵阳森林雨鸭肠王火锅城（丽景花城店）,3.5,涪城区丽景花城A栋2楼(靠近樊华大桥),0816-2377111,周一至周日 10:00-24:00,"[{'iconUrl': 'http://p0.meituan.net/codeman/551290739062eda37e52999e2315f50c1887.png', 'text': '提供wifi'}]",True,104.71133,31.45253,83,899427,绵阳森林雨鸭肠王,1
163418620,爱尚你纸包鱼,5,涪城区沿江东街12号（城北税务分局对面）,0816-2191866/13350979003,周一至周日 09:30-21:30  2020-02-28至2020-03-25 休息,"[{'iconUrl': 'http://p0.meituan.net/codeman/551290739062eda37e52999e2315f50c1887.png', 'text': '提供wifi'}, {'iconUrl': 'http://p1.meituan.net/codeman/4b1c5696fe5bf2c4d23fb01659b3e68b1960.png', 'text': '停车位'}]",True,104.740174,31.461499,39,0,,1
1050293876,布朗熊与可妮兔茶（富临大都会店）,3.5,涪城区富临·大都会一期,18148430810,周一至周日 09:30-21:30  2020-01-22至2020-01-30 休息,[],True,104.744635,31.464573,17,0,,1
155351477,满江红（梓潼店）,4.3,梓潼县万安街347号AC商业广场4楼,0816-8326688,周一至周日 09:00-22:00,"[{'iconUrl': 'http://p1.meituan.net/codeman/4b1c5696fe5bf2c4d23fb01659b3e68b1960.png', 'text': '停车位'}]",True,105.171847,31.628376,46,0,,1
1580289511,辛巴达清真牛羊肉火锅（芙蓉汉城店）,3.5,游仙区剑南路东段芙蓉汉城1期不见不散主题量贩式KTV旁（河堤）,18281638999,周一至周日 11:00-22:00,[],False,104.769171,31.472075,40,0,,1
164462406,鱼水谣仙海火锅鱼,5,涪城区华润中央公园4期诺言汤品楼下。,15881627587,周一至周日 10:30-22:00,"[{'iconUrl': 'http://p0.meituan.net/codeman/551290739062eda37e52999e2315f50c1887.png', 'text': '提供wifi'}]",True,104.718429,31.4836,35,0,,1
1030364537,豆腐王朝,3.5,涪城区涪城路28号,19981789979,周一至周日 13:00-19:00,[],True,104.750537,31.46219,15,0,,1
164923881,西蜀大宅门火锅（普明店）,4.2,涪城区普明北路西段14号（派出所斜对面）,0816-2911969,周一至周日 10:00-22:00  2020-01-24至2020-01-30 休息,"[{'iconUrl': 'http://p0.meituan.net/codeman/551290739062eda37e52999e2315f50c1887.png', 'text': '提供wifi'}, {'iconUrl': 'http://p1.meituan.net/codeman/4b1c5696fe5bf2c4d23fb01659b3e68b1960.png', 'text': '停车位'}]",True,104.663478,31.473765,58,0,,1
138051112,小渝味火锅,4.4,涪城区好吃街挨大掌柜旁边,0816-2600900/18030987989,周一至周日 10:00-21:30  2020-01-23至2020-01-29 休息,"[{'iconUrl': 'http://p0.meituan.net/codeman/551290739062eda37e52999e2315f50c1887.png', 'text': '提供wifi'}]",True,104.626828,31.464523,32,0,,1
165732575,妙童子趣火锅,3.1,涪城区剑南路西段董家沟公交车站对面,0816-2101888,周一至周日 09:30-13:30 16:30-23:00  2020-01-24至2020-01-26 休息 2020-01-27 16:30-23:00,[],True,104.715631,31.476705,56,0,,1
953039487,伊藤佳寿司料理,5,江油市大鹏路西段广场内3楼老灶房对面,15983944065/0816-3771996,周一至周日 10:00-22:00,[],True,104.718849,31.748933,47,0,,1
1452657178,趣味轩（崇尚国际店）,0,涪城区长虹大道110-112号,0816-2333101,周一至周日 09:00-22:00,[],False,104.738697,31.466025,50,0,,1
193395508,茶屿Tea Island（长虹国际店）,3.5,涪城区跃进路6号长虹国际城20栋–1层7号,17608383231,周一至周日 10:00-22:00,[],True,104.742126,31.468864,8,0,,1
933007157,江杉红庭院火锅,0,游仙区松垭镇德政街德政街小学东50米,0816-2822717,周一至周日 10:00-23:00,[],True,104.848488,31.374566,50,0,,1
192492918,醉西东,3.6,涪城区弘光路,0816-2922962/15390250976,周一至周日 17:00-01:00,[],True,104.651361,31.457348,46,0,,1
